{"version": 0.6, "generator": "Overpass API 0.7.56.7 b85c4387", "osm3s": {"timestamp_osm_base": "2020-12-31T01:23:03Z", "copyright": "The data included in this document is from www.openstreetmap.org. The data is made available under ODbL."}, "elements": [{"type": "node", "id": 28123308, "lat": 50.9404581, "lon": 6.9740513, "tags": {"addr:city": "K\u00f6ln", "addr:housenumber": "7", "addr:postcode": "50679", "addr:street": "Ottoplatz", "comment": "Filiale \"K\u00f6ln Deutz\"", "email": "eckert-koeln-140411@ugde.com", "fax": "+49 221 8802492", "level": "0", "name": "Eckert", "opening_hours": "Mo-Sa 05:30-20:30; Su 08:00-20:30", "operator": "Unternehmensgruppe Dr. Eckert GmbH", "phone": "+49 221 814535", "shop": "kiosk", "wheelchair": "yes"}}, {"type": "node", "id": 53980042, "lat": 50.9450611, "lon": 6.9074639, "tags": {"addr:city": "K\u00f6ln", "addr:housenumber": "52", "addr:postcode": "50825", "addr:street": "Oskar-J\u00e4ger-Stra\u00dfe", "amenity": "fuel", "brand": "Independent", "fuel:diesel": "yes", "fuel:e10": "yes", "fuel:octane_95": "yes", "name": "JET-Tankstelle", "operator": "Burkhard Knapp", "phone": "+49 221 9541498", "shop": "kiosk", "wheelchair": "limited"}}, {"type": "node", "id": 55441040, "lat": 50.9408725, "lon": 7.0081399, "tags": {"addr:city": "K\u00f6ln", "addr:housenumber": "1", "addr:postcode": "51103", "addr:street": "Buchforststra\u00dfe", "name": "Netto", "opening_hours": "Mo-Sa 07:00-22:00", "shop": "supermarket", "toilets:wheelchair": "no", "wheelchair": "yes"}}, {"type": "node", "id": 55448627, "lat": 50.9403791, "lon": 7.0065827, "tags": {"shop": "kiosk"}}, {"type": "node", "id": 60258084, "lat": 50.9651647, "lon": 6.9124442}, {"type": "node", "id": 95083415, "lat": 50.9544839, "lon": 6.9214267, "tags": {"brand": "Kamps", "brand:wikidata": "Q1723381", "brand:wikipedia": "de:Kamps (Unternehmen)", "name": "Kamps", "opening_hours": "Mo-Fr 06:30-18:30; Sa 07:00-13:00; Su 08:00-12:00", "shop": "bakery", "source": "survey", "wheelchair": "yes"}}, {"type": "node", "id": 102991868, "lat": 50.9463208, "lon": 6.9218135, "tags": {"brand": "Kaufland", "brand:wikidata": "Q685967", "brand:wikipedia": "en:Kaufland", "check_date:opening_hours": "2020-10-18", "name": "Kaufland", "opening_hours": "Mo-Sa 07:00-22:00", "shop": "supermarket", "source": "survey", "wheelchair": "yes"}}, {"type": "node", "id": 175668666, "lat": 50.9549137, "lon": 6.9211898, "tags": {"capacity:covid19": "2", "name": "H\u00f6schler", "opening_hours": "Mo-Fr 06:00-18:00; Sa 07:00-12:30; PH, Su 08:00-11:30; DEC 25, DEC 26 off", "shop": "bakery", "toilets:wheelchair": "no", "wheelchair": "yes"}}, {"type": "node", "id": 205439670, "lat": 50.8820468, "lon": 7.0819618, "tags": {"amenity": "fuel", "brand": "Shell", "fuel:diesel": "yes", "fuel:e10": "yes", "fuel:octane_100": "yes", "name": "Shell", "opening_hours": "Mo-Fr 06:00-22:00; Sa-Su 07:00-22:00", "operator": "Shell", "shop": "convenience", "toilets:wheelchair": "no", "wheelchair": "yes"}}, {"type": "node", "id": 221719696, "lat": 50.861672, "lon": 6.9713817}, {"type": "node", "id": 231403848, "lat": 50.9610217, "lon": 6.8921375, "tags": {"shop": "kiosk", "wheelchair": "limited"}}, {"type": "node", "id": 231413001, "lat": 50.970211, "lon": 6.9151551, "tags": {"created_by": "JOSM", "shop": "kiosk", "source": "survey", "wheelchair": "no"}}, {"type": "node", "id": 232289350, "lat": 50.9585924, "lon": 6.9497996, "tags": {"brand": "Netto Marken-Discount", "brand:wikidata": "Q879858", "brand:wikipedia": "de:Netto Marken-Discount", "name": "Netto Marken-Discount", "opening_hours": "Mo-Sa 07:00-22:00", "shop": "supermarket", "source": "survey", "wheelchair": "limited"}}, {"type": "node", "id": 233289315, "lat": 50.9602048, "lon": 6.9018818, "tags": {"shop": "kiosk", "source": "survey", "wheelchair": "limited"}}, {"type": "node", "id": 242515981, "lat": 50.9255261, "lon": 6.9581475, "tags": {"FIXME": "Plus wurde zum 1.1.2009 durch Netto \u00fcbernommen. Die bisherigen Plus-Filialen werden entweder in Netto umbenannt oder (wenige) an andere Handelsketten verkauft. Bitte \u00fcberpr\u00fcfen, unter welchem Namen diese Filiale jetzt l\u00e4uft.", "addr:city": "K\u00f6ln", "addr:country": "DE", "addr:housenumber": "83", "addr:street": "Severinstra\u00dfe", "name": "Netto", "shop": "supermarket", "source": "survey", "wheelchair": "limited"}}, {"type": "node", "id": 242517060, "lat": 50.9699446, "lon": 6.9129558, "tags": {"created_by": "JOSM", "shop": "kiosk", "source": "survey", "wheelchair": "yes"}}, {"type": "node", "id": 242848053, "lat": 50.9822847, "lon": 6.9487811}, {"type": "node", "id": 242848054, "lat": 50.9698119, "lon": 6.9468643, "tags": {"name": "Smoke Pops", "shop": "kiosk", "source": "survey"}}, {"type": "node", "id": 242848076, "lat": 50.9690151, "lon": 6.9465478, "tags": {"name": "Getr\u00e4nke Alara", "shop": "convenience", "source": "survey"}}, {"type": "node", "id": 242924513, "lat": 50.9749464, "lon": 6.9505653, "tags": {"addr:city": "K\u00f6ln", "addr:housenumber": "482", "addr:postcode": "50733", "addr:street": "Neusser Stra\u00dfe", "brand": "KiK", "brand:wikidata": "Q883965", "brand:wikipedia": "en:KiK", "name": "KiK", "shop": "clothes", "source": "survey", "wheelchair": "yes"}}, {"type": "node", "id": 242924516, "lat": 50.9754216, "lon": 6.9498658, "tags": {"shop": "kiosk", "source": "survey"}}, {"type": "node", "id": 243172180, "lat": 51.0000841, "lon": 6.8851226, "tags": {"shop": "kiosk", "source": "survey", "wheelchair": "yes"}}, {"type": "node", "id": 243172248, "lat": 51.0012577, "lon": 6.8773141, "tags": {"addr:city": "K\u00f6ln", "addr:housenumber": "35", "addr:postcode": "50767", "addr:street": "Donatusstra\u00dfe", "coffee": "yes", "drinks": "yes", "ice_cream": "yes", "name": "Kiosk Donatus", "network": "VRS", "opening_hours": "Mo-We 06:00-23:00; Fr 06:00-24:00; Sa 07:00-24:00; Su 08:00-23:00", "operator:VRS": "KVB", "shop": "kiosk", "shop:VRS": "ticket", "snacks": "yes", "source": "survey", "website": "https://www.kiosk-donatus.de/"}}, {"type": "node", "id": 243365013, "lat": 50.9968837, "lon": 6.914581, "tags": {"amenity": "cafe", "name": "Heinemann", "opening_hours": "Mo 06:30-18:30; Tu-Fr 06:30-19:00; Sa 06:30-14:00; Su 07:00-12:00", "phone": "+49 221 5992976", "shop": "bakery", "source": "survey", "wheelchair": "yes"}}, {"type": "node", "id": 243914656, "lat": 50.9528312, "lon": 6.9224452, "tags": {"fee": "yes", "internet_access": "yes", "name": "ATE Kiosk Getr\u00e4nke Markt", "shop": "kiosk", "source": "photography", "wheelchair": "no"}}, {"type": "node", "id": 243914666, "lat": 50.9533145, "lon": 6.9279726}, {"type": "node", "id": 243914667, "lat": 50.9544434, "lon": 6.92999, "tags": {"created_by": "JOSM", "shop": "kiosk", "source": "survey", "wheelchair": "yes"}}, {"type": "node", "id": 243917369, "lat": 50.9554978, "lon": 6.9317802, "tags": {"name": "Kemal's", "shop": "kiosk", "source": "survey"}}, {"type": "node", "id": 243917379, "lat": 50.9556901, "lon": 6.9323235, "tags": {"name": "Ital Macelleria", "shop": "convenience", "source": "survey"}}, {"type": "node", "id": 243924621, "lat": 50.9540901, "lon": 6.9197762, "tags": {"name": "Kiosk 58", "shop": "kiosk", "source": "survey"}}, {"type": "node", "id": 243924623, "lat": 50.9541048, "lon": 6.9190285, "tags": {"name": "Zweirad-Paradies", "opening_hours": "Mo-Fr 10:00-13:00, 14:00-18:30; Sa 10:00-15:00", "phone": "+49 157 53156230", "shop": "bicycle"}}, {"type": "node", "id": 243924633, "lat": 50.9551007, "lon": 6.9171734, "tags": {"name": "Bio-Chi", "shop": "convenience", "source": "survey"}}, {"type": "node", "id": 243924635, "lat": 50.9547763, "lon": 6.9168738, "tags": {"brand": "Rewe", "brand:wikidata": "Q16968817", "brand:wikipedia": "en:REWE", "internet_access": "wlan", "internet_access:fee": "no", "name": "Rewe", "opening_hours": "Mo-Sa 07:00-22:00; Su, PH off", "payment:american_express": "yes", "payment:coins": "yes", "payment:maestro": "yes", "payment:mastercard": "yes", "payment:notes": "yes", "payment:visa": "yes", "shop": "supermarket"}}, {"type": "node", "id": 243931251, "lat": 50.9688729, "lon": 6.8919751, "tags": {"created_by": "JOSM", "shop": "kiosk", "source": "survey", "wheelchair": "no"}}, {"type": "node", "id": 243934861, "lat": 50.9667307, "lon": 6.8975213, "tags": {"brand": "Rewe", "brand:wikidata": "Q16968817", "brand:wikipedia": "en:REWE", "name": "Rewe", "opening_hours": "Mo-Sa 07:00-22:00", "phone": "+49 221 530 59 69", "shop": "supermarket", "website": "https://www.rewe.de/", "wheelchair": "yes"}}, {"type": "node", "id": 243974621, "lat": 50.9595499, "lon": 6.8968096, "tags": {"shop": "kiosk", "source": "survey", "wheelchair": "no"}}, {"type": "node", "id": 243975715, "lat": 50.9588099, "lon": 6.9067596, "tags": {"created_by": "JOSM", "shop": "kiosk", "source": "survey"}}, {"type": "node", "id": 243975979, "lat": 50.9566402, "lon": 6.913384, "tags": {"addr:city": "K\u00f6ln", "addr:housenumber": "2", "addr:postcode": "50825", "addr:street": "Halmstra\u00dfe", "check_date:opening_hours": "2020-11-27", "name": "Kiosk, Subbelrather-Eck", "opening_hours": "Mo-Th 08:00-24:00, Fr,Sa 08:00-01:00, Su,PH 09:00-24:00", "shop": "kiosk", "source": "survey"}}, {"type": "node", "id": 244053075, "lat": 50.9567144, "lon": 6.9272108, "tags": {"name": "Otto-Kiosk", "shop": "kiosk", "source": "survey", "wheelchair": "limited"}}, {"type": "node", "id": 244055519, "lat": 50.9804769, "lon": 6.8678135, "tags": {"name": "Netto", "opening_hours": "Mo-Sa 07:00-20:00", "shop": "supermarket", "source": "survey", "wheelchair": "yes"}}, {"type": "node", "id": 244055733, "lat": 50.9797243, "lon": 6.8675205, "tags": {"brand": "Rewe", "brand:wikidata": "Q16968817", "brand:wikipedia": "en:REWE", "name": "Rewe", "opening_hours": "Mo-Sa 07:00-22:00", "shop": "supermarket", "source": "survey", "website": "https://www.rewe.de/marktseite/koeln-bocklemuend/1940046/rewe-markt-goerlinger-zentrum-24/", "wheelchair": "yes"}}, {"type": "node", "id": 244062942, "lat": 50.9623597, "lon": 6.8971613, "tags": {"name": "Becher's Backhaus", "opening_hours": "Mo-Fr 06:30-18:30; Sa 06:30-13:00; Su 08:00-12:00", "shop": "bakery", "source": "survey", "wheelchair": "no"}}, {"type": "node", "id": 244118274, "lat": 50.9643708, "lon": 6.8305912, "tags": {"noname": "yes", "opening_hours": "Mo-Fr 09:00-18:00; Sa 09:00-14:00", "shop": "kiosk", "source": "survey", "wheelchair": "limited"}}, {"type": "node", "id": 244118347, "lat": 50.9659325, "lon": 6.8338832, "tags": {"noname": "yes", "opening_hours:signed": "no", "shop": "kiosk", "source": "survey", "wheelchair": "no"}}, {"type": "node", "id": 244118360, "lat": 50.9647257, "lon": 6.8313916, "tags": {"noname": "yes", "opening_hours": "Mo-Fr 08:30-18:00; Sa 09:00-14:00", "shop": "kiosk", "source": "survey", "wheelchair": "no"}}, {"type": "node", "id": 244118848, "lat": 50.9674707, "lon": 6.8371236, "tags": {"created_by": "JOSM", "name:signed": "no", "shop": "kiosk", "source": "survey", "wheelchair": "limited"}}, {"type": "node", "id": 244219531, "lat": 50.9625783, "lon": 6.8956368, "tags": {"created_by": "JOSM", "shop": "kiosk", "source": "survey"}}, {"type": "node", "id": 244219631, "lat": 50.9608961, "lon": 6.9016295, "tags": {"shop": "kiosk", "source": "knowledge"}}, {"type": "node", "id": 244296673, "lat": 50.980061, "lon": 6.8675787, "tags": {"name": "Zentrum-Kiosk", "operator": "AN Zentrum K\u00f6ln GmbH", "shop": "kiosk", "source": "survey", "wheelchair": "yes"}}, {"type": "node", "id": 244914835, "lat": 50.9367012, "lon": 6.9747787, "tags": {"addr:city": "K\u00f6ln", "addr:country": "DE", "addr:housenumber": "84", "addr:postcode": "50679", "addr:street": "Deutzer Freiheit", "fax": "+49 221 9808676", "name": "REWE Rahmati", "opening_hours": "Mo-Sa 07:00-24:00", "operator": "REWE Rahmati OHG", "phone": "+49 221 9808674", "shop": "supermarket", "website": "https://www.rewe-rahmati.de/", "wheelchair": "yes"}}, {"type": "node", "id": 244915096, "lat": 50.9368356, "lon": 6.9770213, "tags": {"access:covid19": "yes", "addr:city": "K\u00f6ln", "addr:housenumber": "112", "addr:postcode": "50679", "addr:street": "Deutzer Freiheit", "breakfast": "yes", "cafe": "yes", "indoor_seating": "bar_table", "name": "H\u00fctten", "opening_hours": "Mo-Fr 06:30-20:00; Sa-Su 06:30-17:30", "opening_hours:covid19": "open", "operator": "B\u00e4ckerei und Konditorei H\u00fctten", "outdoor_seating": "yes", "pastry_shop": "yes", "phone": "+49 221 816420", "shop": "bakery", "website": "http://www.koeln-deutz.de/In-Deutz-B\u00e4ckerei-und-Konditorei-H\u00fctten_3_17_541.html", "wheelchair": "no"}}, {"type": "node", "id": 245798666, "lat": 50.9646934, "lon": 6.9129417, "tags": {"name": "Trinkhalle", "shop": "kiosk", "source": "survey", "wheelchair": "limited"}}, {"type": "node", "id": 245981545, "lat": 50.9574253, "lon": 6.9235902, "tags": {"name": "Lucies Kiosk", "shop": "kiosk", "source": "survey", "wheelchair": "limited", "wheelchair:description": "Eine Stufe"}}, {"type": "node", "id": 245985127, "lat": 50.9635517, "lon": 6.9183215, "tags": {"addr:city": "K\u00f6ln", "addr:housenumber": "17", "addr:postcode": "50825", "addr:street": "Rothenkruger Stra\u00dfe", "name": "Happy Shop DHL Paketshop", "opening_hours": "Mo-Su 07:00-22:00", "operator": "Bayat", "shop": "kiosk", "source": "survey", "wheelchair": "limited"}}, {"type": "node", "id": 246271861, "lat": 50.9583932, "lon": 6.942268, "tags": {"name": "Lucky", "shop": "kiosk", "source": "survey"}}, {"type": "node", "id": 246271886, "lat": 50.9712289, "lon": 6.9285592, "tags": {"addr:postcode": "50739", "name": "Arim", "name:de": "\u00d6zmen Brot", "name:en": "\u00d6zmen Brot", "opening_hours": "Mo-Fr 06:00-20:00; Sa 08:00-20:00; Su 10:00-19:00", "phone": "+49 173 3564237", "shop": "supermarket", "source": "survey"}}, {"type": "node", "id": 246271892, "lat": 50.9592017, "lon": 6.9404021, "tags": {"addr:city": "K\u00f6ln", "addr:housenumber": "88", "addr:postcode": "50739", "addr:street": "Escher Stra\u00dfe", "name": "Netto", "shop": "supermarket", "source": "survey", "wheelchair": "yes"}}, {"type": "node", "id": 246271942, "lat": 50.9593062, "lon": 6.9449501, "tags": {"created_by": "JOSM", "shop": "kiosk", "source": "survey"}}, {"type": "node", "id": 246271999, "lat": 50.9581345, "lon": 6.9434863, "tags": {"shop": "kiosk", "source": "survey", "wheelchair": "no"}}, {"type": "node", "id": 246281805, "lat": 50.9690641, "lon": 6.9299154, "tags": {"addr:city": "K\u00f6ln", "addr:country": "DE", "addr:housenumber": "50", "addr:postcode": "50739", "addr:street": "Schiefersburger Weg", "brand": "Rossmann", "brand:wikidata": "Q316004", "brand:wikipedia": "de:Dirk Rossmann GmbH", "contact:phone": "+49 221 1705601", "contact:website": "https://www.rossmann.de", "name": "Rossmann", "opening_hours": "Mo-Fr 08:30-19:00; Sa 08:30-16:00; PH off", "operator": "Dirk Rossmann GmbH", "ref:shop:num": "1116", "ref:vatin": "DE115055186", "shop": "chemist", "wheelchair": "yes"}}, {"type": "node", "id": 246282480, "lat": 50.974185, "lon": 6.9270404, "tags": {"created_by": "JOSM", "name": "Depo", "opening_hours": "Mo-Fr 09:00-19:00; Sa 09:00-18:00", "shop": "supermarket", "source": "survey", "wheelchair": "yes"}}, {"type": "node", "id": 246568821, "lat": 50.9590546, "lon": 6.939303, "tags": {"shop": "kiosk", "source": "survey"}}, {"type": "node", "id": 246770149, "lat": 50.9750136, "lon": 6.9486292, "tags": {"shop": "kiosk", "source": "survey"}}, {"type": "node", "id": 246781547, "lat": 50.9476733, "lon": 6.9222764, "tags": {"brand": "denn's Biomarkt", "brand:wikidata": "Q48883773", "brand:wikipedia": "de:Dennree", "name": "denn's Biomarkt", "opening_hours": "Mo-Sa 08:00-21:00", "organic": "only", "shop": "supermarket", "source": "survey", "wheelchair": "yes"}}, {"type": "node", "id": 247388972, "lat": 51.0246962, "lon": 6.9597978, "tags": {"created_by": "JOSM", "shop": "bakery", "source": "survey"}}, {"type": "node", "id": 247388973, "lat": 51.0249356, "lon": 6.9595319, "tags": {"shop": "kiosk", "source": "survey"}}, {"type": "node", "id": 247388980, "lat": 51.0256403, "lon": 6.9587271, "tags": {"created_by": "JOSM", "shop": "convenience", "source": "survey"}}, {"type": "node", "id": 247388981, "lat": 51.0259853, "lon": 6.9582937, "tags": {"shop": "kiosk", "source": "survey"}}, {"type": "node", "id": 248148489, "lat": 50.9319646, "lon": 6.9483053, "tags": {"addr:housenumber": "28", "addr:street": "Kleiner Griechenmarkt", "name": "a-musik", "opening_hours": "Sa 12:00-16:00; Tu, We 13:00-18:00; Th, Fr 12:00-19:00", "phone": "+492211390442", "shop": "music", "shop:music:cd": "yes", "shop:music:new": "yes", "shop:music:second_hand": "yes", "shop:music:vinyl": "yes", "source": "survey", "website": "https://www.a-musik.com", "wikidata": "Q277860", "wikipedia": "de:A-Musik"}}, {"type": "node", "id": 248712644, "lat": 50.9366126, "lon": 6.9781404, "tags": {"access:covid19": "yes", "addr:city": "K\u00f6ln", "addr:country": "DE", "addr:housenumber": "3", "addr:postcode": "50679", "addr:street": "Gotenring", "addr:suburb": "Deutz", "name": "Vollkornb\u00e4ckerei Hansen", "opening_hours": "Mo-Fr 06:00-18:30; Sa 05:45-14:00", "opening_hours:covid19": "open", "shop": "bakery", "wheelchair": "yes"}}, {"type": "node", "id": 249059818, "lat": 50.9484347, "lon": 6.9117403}, {"type": "node", "id": 249059824, "lat": 50.9450357, "lon": 6.908969, "tags": {"entrance": "main"}}, {"type": "node", "id": 249059825, "lat": 50.9451841, "lon": 6.8994991, "tags": {"addr:city": "K\u00f6ln", "addr:housenumber": "219", "addr:postcode": "50825", "addr:street": "Widdersdorfer Stra\u00dfe", "brand": "Rewe", "brand:wikidata": "Q16968817", "brand:wikipedia": "en:REWE", "name": "Rewe", "opening_hours": "Mo-Sa 07:00-24:00; Su,PH off", "phone": "+49 221 9541363", "shop": "supermarket", "source": "survey", "wheelchair": "limited"}}, {"type": "node", "id": 249065633, "lat": 50.9474795, "lon": 6.8858471, "tags": {"coffee": "yes", "indoor_seating": "bar_table", "name": "\"S\u00fc\u00dfes & Saures\"", "shop": "kiosk", "snacks": "yes", "source": "survey"}}, {"type": "node", "id": 249065635, "lat": 50.9470886, "lon": 6.8859955, "tags": {"addr:city": "K\u00f6ln", "addr:country": "DE", "addr:housenumber": "301", "addr:postcode": "50933", "addr:street": "Vitalisstra\u00dfe", "name": "Rosenfeld", "shop": "kiosk", "source": "survey", "wheelchair": "limited"}}, {"type": "node", "id": 249065643, "lat": 50.9433421, "lon": 6.8828213, "tags": {"addr:city": "K\u00f6ln", "addr:country": "DE", "addr:housenumber": "393", "addr:postcode": "50933", "addr:street": "Vitalisstra\u00dfe", "name": "Kiosk Carsi", "opening_hours": "Mo-Fr 07:00-22:00; Sa 09:00-22:00", "shop": "kiosk", "source": "survey", "wheelchair": "no"}}, {"type": "node", "id": 249694151, "lat": 50.9248377, "lon": 6.9798191}, {"type": "node", "id": 249759187, "lat": 51.0653091, "lon": 6.8624027, "tags": {"created_by": "JOSM", "name": "Rad-Schuppen", "shop": "bicycle", "source": "survey"}}, {"type": "node", "id": 250517415, "lat": 51.060926, "lon": 6.8722596, "tags": {"shop": "kiosk", "source": "survey"}}, {"type": "node", "id": 252017288, "lat": 50.9664648, "lon": 6.9522563, "tags": {"shop": "kiosk", "source": "survey", "wheelchair": "limited"}}, {"type": "node", "id": 252043795, "lat": 50.9649047, "lon": 6.9540377, "tags": {"name": "Kiosk", "shop": "kiosk", "source": "survey", "wheelchair": "yes"}}, {"type": "node", "id": 252043800, "lat": 50.9635248, "lon": 6.9541501, "tags": {"name": "Merzenich", "opening_hours": "Mo-Fr 06:00-20:30; Sa-So, PH 06:00-18:00", "shop": "bakery", "source": "survey", "wheelchair": "limited"}}, {"type": "node", "id": 252043802, "lat": 50.9638266, "lon": 6.9544454, "tags": {"addr:city": "K\u00f6ln", "addr:housenumber": "254", "addr:postcode": "50733", "addr:street": "Neusser Stra\u00dfe", "brand": "REWE", "contact:phone": "+49 221 97 25 650", "contact:website": "https://www.rewe-rahmati.de/unsere-maerkte/neusser-stra%C3%9Fe.html", "level": "0", "name": "REWE Rahmati", "opening_hours": "Mo-Fr 07:00-24:00; Sa 07:00-22:00", "operator": "REWE Rahmati", "shop": "supermarket", "source": "survey", "wheelchair": "yes"}}, {"type": "node", "id": 252043803, "lat": 50.9663418, "lon": 6.9532251, "tags": {"shop": "kiosk", "source": "survey"}}, {"type": "node", "id": 252608602, "lat": 50.9200318, "lon": 6.9357168, "tags": {"addr:city": "K\u00f6ln", "addr:country": "DE", "addr:housenumber": "20-30", "addr:postcode": "50939", "addr:street": "Wei\u00dfhausstra\u00dfe", "brand": "Real", "brand:wikidata": "Q698473", "brand:wikipedia": "en:Real (hypermarket)", "name": "Real", "opening_hours": "Mo-Sa 07:00-22:00", "phone": "+49 221 9420080", "shop": "supermarket", "wheelchair": "yes"}}, {"type": "node", "id": 255240848, "lat": 50.9359454, "lon": 6.9526631, "tags": {"brand": "Peek & Cloppenburg", "brand:wikidata": "Q2066959", "brand:wikipedia": "en:Peek & Cloppenburg", "name": "Peek & Cloppenburg", "shop": "clothes", "source": "survey", "toilets:wheelchair": "yes", "website": "https://www.peek-cloppenburg.de/store/", "wheelchair": "yes"}}, {"type": "node", "id": 255448651, "lat": 50.9519758, "lon": 6.9257643}, {"type": "node", "id": 256262683, "lat": 50.971, "lon": 6.9473935}, {"type": "node", "id": 256262684, "lat": 50.9710101, "lon": 6.9476358}, {"type": "node", "id": 256273457, "lat": 50.9665003, "lon": 6.9539451, "tags": {"shop": "kiosk"}}, {"type": "node", "id": 256274120, "lat": 50.9653978, "lon": 6.9531732, "tags": {"shop": "kiosk", "wheelchair": "yes"}}, {"type": "node", "id": 256542258, "lat": 50.9627064, "lon": 6.9543388, "tags": {"brand": "BackWerk", "brand:wikidata": "Q798298", "brand:wikipedia": "de:BackWerk", "name": "Backwerk", "opening_hours": "Mo-Fr 06:00-19:00; Sa 07:00-17:00; Su 07:00-16:00", "shop": "bakery", "wheelchair": "no"}}, {"type": "node", "id": 256542582, "lat": 50.9609496, "lon": 6.9533184, "tags": {"laundry_service": "no", "opening_hours": "Mo-Sa 06:00-22:00; Su,PH off", "self_service": "yes", "shop": "laundry", "wheelchair": "yes"}}, {"type": "node", "id": 256549021, "lat": 50.9364272, "lon": 6.9550764, "tags": {"entrance": "main"}}, {"type": "node", "id": 256549022, "lat": 50.9359367, "lon": 6.9549145}, {"type": "node", "id": 256549023, "lat": 50.9359413, "lon": 6.9548841}, {"type": "node", "id": 256549029, "lat": 50.9352354, "lon": 6.956154, "tags": {"entrance": "main"}}, {"type": "node", "id": 256549031, "lat": 50.9355627, "lon": 6.9561199}, {"type": "node", "id": 256549033, "lat": 50.9360186, "lon": 6.9561072}, {"type": "node", "id": 256549034, "lat": 50.9361031, "lon": 6.9561238}, {"type": "node", "id": 256549035, "lat": 50.9362807, "lon": 6.9561825, "tags": {"entrance": "main"}}, {"type": "node", "id": 256665865, "lat": 50.964337, "lon": 6.9539801, "tags": {"brand": "Alnatura", "brand:wikidata": "Q876811", "brand:wikipedia": "en:Alnatura", "name": "Alnatura", "organic": "only", "phone": "+49 221 1208107", "shop": "supermarket", "source": "survey", "wheelchair": "yes"}}, {"type": "node", "id": 256665876, "lat": 50.9617697, "lon": 6.9545778, "tags": {"addr:postcode": "50733", "brand": "Aldi S\u00fcd", "brand:wikidata": "Q41171672", "brand:wikipedia": "en:Aldi", "name": "Aldi S\u00fcd", "opening_hours": "Mo-Sa 08:00-21:00", "operator": "ALDI GmbH & Co. KG", "shop": "supermarket", "website": "https://www.aldi-sued.de/", "wheelchair": "yes"}}, {"type": "node", "id": 256665878, "lat": 50.9627099, "lon": 6.9533575, "tags": {"name": "Turkan Market", "shop": "supermarket"}}, {"type": "node", "id": 256677588, "lat": 50.9496514, "lon": 6.9494665, "tags": {"entrance": "emergency"}}, {"type": "node", "id": 257808767, "lat": 50.97266, "lon": 6.95097, "tags": {"name": "Newzella", "shop": "bakery", "toilets:wheelchair": "yes", "wheelchair": "yes"}}, {"type": "node", "id": 257808768, "lat": 50.9727944, "lon": 6.9509162, "tags": {"addr:city": "K\u00f6ln", "addr:housenumber": "457", "addr:postcode": "50733", "addr:street": "Neusser Stra\u00dfe", "name": "Kiosk Moravek", "network": "VRS", "operator:VRS": "KVB", "shop": "kiosk", "shop:VRS": "ticket", "wheelchair": "yes"}}, {"type": "node", "id": 257808769, "lat": 50.9671771, "lon": 6.95339, "tags": {"name": "Netto", "shop": "supermarket", "source": "survey", "wheelchair": "yes"}}, {"type": "node", "id": 257808770, "lat": 50.9654144, "lon": 6.9537522, "tags": {"addr:city": "K\u00f6ln", "addr:housenumber": "292-294", "addr:postcode": "50733", "addr:street": "Neusser Stra\u00dfe", "brand": "Rewe City", "brand:wikidata": "Q16968817", "brand:wikipedia": "en:REWE", "contact:phone": "+49 221 9762416", "contact:website": "https://www.rewe.de/marktseite/rewe-city-markt-k%C3%B6ln-neusser-stra%C3%9Fe-292-294", "name": "Rewe City", "operator": "REWE", "shop": "supermarket", "source": "survey", "wheelchair": "yes"}}, {"type": "node", "id": 257808771, "lat": 50.9645428, "lon": 6.9539234, "tags": {"name": "Middelberg", "operator": "Billy Back", "shop": "bakery"}}, {"type": "node", "id": 259198814, "lat": 50.9363873, "lon": 6.9572986, "tags": {"note": "2019-03-09: Leerstand, zu vermieten", "shop": "vacant"}}, {"type": "node", "id": 259559174, "lat": 51.019654, "lon": 6.886457, "tags": {"shop": "kiosk"}}, {"type": "node", "id": 259559360, "lat": 51.0195914, "lon": 6.8862539, "tags": {"shop": "bakery"}}, {"type": "node", "id": 260740813, "lat": 50.9369305, "lon": 6.9008138, "tags": {"name": "Temma", "opening_hours": "Mo-Sa 07:00-21:00", "organic": "only", "shop": "supermarket", "wheelchair": "yes"}}, {"type": "node", "id": 260740824, "lat": 50.9374596, "lon": 6.9004024, "tags": {"brand": "Rewe", "brand:wikidata": "Q16968817", "brand:wikipedia": "en:REWE", "name": "Rewe", "opening_hours": "Mo-Fr 08:00-24:00; Sa 08:00-22:00", "shop": "supermarket", "toilets:wheelchair": "no", "wheelchair": "yes"}}, {"type": "node", "id": 262209444, "lat": 50.9752309, "lon": 7.0237652}, {"type": "node", "id": 262209445, "lat": 50.9744793, "lon": 7.0235707}, {"type": "node", "id": 263251385, "lat": 50.9614143, "lon": 7.0219363, "tags": {"shop": "kiosk", "wheelchair": "yes"}}, {"type": "node", "id": 263442909, "lat": 51.0268777, "lon": 6.8879464, "tags": {"name": "Getraenke Express", "shop": "alcohol", "wheelchair": "yes"}}, {"type": "node", "id": 265648691, "lat": 51.0203184, "lon": 6.8964115, "tags": {"addr:postcode": "50765", "brand": "Aldi S\u00fcd", "brand:wikidata": "Q41171672", "brand:wikipedia": "en:Aldi", "name": "Aldi S\u00fcd", "opening_hours": "Mo-Sa 08:00-21:00", "operator": "Aldi S\u00fcd", "shop": "supermarket", "website": "https://www.aldi-sued.de/", "wheelchair": "yes"}}, {"type": "node", "id": 265730426, "lat": 50.919625, "lon": 6.9350898, "tags": {"name": "Pneuhage", "shop": "tyres"}}, {"type": "node", "id": 265913477, "lat": 50.9174937, "lon": 6.9361321}, {"type": "node", "id": 266325617, "lat": 50.9322284, "lon": 6.8671289, "tags": {"alt_name": "Der Junker", "food": "yes", "name": "Kiosk Junkersdorf", "opening_hours": "Mo-Sa 07:00-22:00", "outdoor_seating": "yes", "shop": "kiosk", "wheelchair": "yes"}}, {"type": "node", "id": 266371787, "lat": 50.8760696, "lon": 7.0989579, "tags": {"name": "Frischmarkt Grengel", "shop": "supermarket", "wheelchair": "yes"}}, {"type": "node", "id": 266567766, "lat": 50.9689767, "lon": 6.9745605, "tags": {"brand": "Norma", "brand:wikidata": "Q450180", "brand:wikipedia": "de:Norma (Handelskette)", "name": "Norma", "opening_hours": "Mo-Sa 08:00-21:00", "operator": "Norma", "shop": "supermarket", "wheelchair": "yes"}}, {"type": "node", "id": 267524347, "lat": 51.0510032, "lon": 6.849633, "tags": {"created_by": "Potlatch 0.9c", "name": "Edeka", "shop": "supermarket", "wheelchair": "yes"}}, {"type": "node", "id": 268256798, "lat": 50.9979302, "lon": 6.8763982, "tags": {"shop": "kiosk"}}, {"type": "node", "id": 268256923, "lat": 50.9988486, "lon": 6.8696775, "tags": {"name": "Kiosk", "shop": "kiosk"}}, {"type": "node", "id": 268421648, "lat": 50.9361746, "lon": 6.9861778, "tags": {"addr:city": "K\u00f6ln", "addr:country": "DE", "addr:housenumber": "70", "addr:postcode": "50679", "addr:street": "Deutz-Kalker Stra\u00dfe", "name": "Bonami Shop", "phone": "+49 221 829 11 33", "shop": "kiosk", "wheelchair": "limited"}}, {"type": "node", "id": 271902072, "lat": 50.9275881, "lon": 6.9531775, "tags": {"addr:city": "K\u00f6ln", "addr:country": "DE", "addr:housenumber": "39", "addr:street": "Paulstra\u00dfe", "name": "Onkel Tan's Kiosk", "shop": "kiosk", "wheelchair": "limited"}}, {"type": "node", "id": 274119036, "lat": 50.9707011, "lon": 7.0477864, "tags": {"addr:housenumber": "599", "addr:street": "Bergisch Gladbacher Stra\u00dfe", "brand": "denn's Biomarkt", "brand:wikidata": "Q48883773", "name": "denn's Biomarkt", "opening_hours": "Mo-Sa 08:00-20:00", "organic": "only", "phone": "+49 221 96482719", "shop": "supermarket", "website": "https://denns-biomarkt.de/koeln-bergisch-gladbacher-str-599/marktseite/", "wheelchair": "yes"}}, {"type": "node", "id": 277556385, "lat": 51.0509201, "lon": 6.8496644, "tags": {"name": "Kayser", "shop": "bakery", "wheelchair": "yes"}}, {"type": "node", "id": 277720307, "lat": 50.8945257, "lon": 7.0788895, "tags": {"name": "Schmitz", "shop": "butcher"}}, {"type": "node", "id": 277816190, "lat": 50.9678318, "lon": 7.0349297, "tags": {"amenity": "fuel", "brand": "Aral", "fuel:1_25": "no", "fuel:1_50": "no", "fuel:GTL_diesel": "yes", "fuel:HGV_diesel": "yes", "fuel:adblue": "yes", "fuel:biodiesel": "no", "fuel:cng": "yes", "fuel:diesel": "yes", "fuel:e10": "yes", "fuel:e85": "no", "fuel:lpg": "yes", "fuel:octane_100": "yes", "fuel:octane_80": "no", "fuel:octane_91": "no", "fuel:octane_92": "no", "fuel:octane_95": "yes", "fuel:octane_98": "yes", "name": "Aral", "opening_hours": "24/7", "operator": "Thomas Schulze", "shop": "convenience", "wheelchair": "limited"}}, {"type": "node", "id": 279394288, "lat": 50.9146946, "lon": 6.9948915, "tags": {"name": "Poller Getr\u00e4nkeshop", "shop": "beverages", "wheelchair": "yes"}}, {"type": "node", "id": 280572120, "lat": 50.9765787, "lon": 7.0729237, "tags": {"name": "Merzenich", "opening_hours": "Mo-Fr 06:00-18:30; Sa 06:00-17:00; Su 07:00-17:00", "shop": "bakery", "wheelchair": "yes"}}, {"type": "node", "id": 280833844, "lat": 50.9761871, "lon": 7.0732682, "tags": {"addr:housenumber": "92-94", "addr:postcode": "51069", "addr:street": "Dellbr\u00fccker Hauptstra\u00dfe", "brand": "Rewe", "brand:wikidata": "Q16968817", "brand:wikipedia": "en:REWE", "name": "Rewe", "shop": "supermarket", "wheelchair": "limited"}}, {"type": "node", "id": 280961559, "lat": 50.9299987, "lon": 6.9139729, "tags": {"addr:city": "K\u00f6ln", "addr:country": "DE", "addr:housenumber": "199-203", "addr:postcode": "50931", "addr:street": "D\u00fcrener Stra\u00dfe", "brand": "Edeka", "brand:wikidata": "Q701755", "brand:wikipedia": "en:Edeka", "name": "Edeka", "shop": "supermarket", "source": "survey", "wheelchair": "yes"}}, {"type": "node", "id": 281236696, "lat": 50.9714928, "lon": 7.0876553, "tags": {"brand": "Nahkauf", "brand:wikidata": "Q57515238", "name": "Nahkauf", "shop": "supermarket"}}, {"type": "node", "id": 285549308, "lat": 50.9422536, "lon": 6.9358267, "tags": {"addr:city": "K\u00f6ln", "addr:country": "DE", "addr:housenumber": "30", "addr:postcode": "50672", "addr:street": "Venloer Stra\u00dfe", "description": "Guter Bio-Supermarkt mit Online-Shop", "name": "Hulc Bio-Food", "opening_hours": "Mo-Fr 08:00-20:00, Sa 09:00-18:00", "operator": "Eva-Maria Eckert, Linda Lorang", "phone": "+49 221 5101666", "shop": "supermarket", "website": "http://www.hulc.de", "wheelchair": "yes"}}, {"type": "node", "id": 285549314, "lat": 50.9416208, "lon": 6.9364036, "tags": {"addr:city": "K\u00f6ln", "addr:housenumber": "23", "addr:postcode": "50672", "addr:street": "Venloer Stra\u00dfe", "brand": "Rewe City", "brand:wikidata": "Q16968817", "brand:wikipedia": "en:REWE", "name": "Rewe City", "opening_hours": "Mo-Sa 07:00-24:00", "operator": "REWE", "postal_code": "50672", "shop": "supermarket", "wheelchair": "yes"}}, {"type": "node", "id": 285671384, "lat": 50.9510128, "lon": 6.954055, "tags": {"email": "kontakt@maybach-garage.de", "name": "Maybach Garage", "opening_hours": "Mo-Fr 08:00-18:00", "phone": "+49 221 7393289", "shop": "car_repair", "website": "maybach-garage.de", "wheelchair": "yes"}}, {"type": "node", "id": 286123022, "lat": 51.0047856, "lon": 6.899569, "tags": {"amenity": "post_office", "name": "multistore (Hermesshop)", "operator": "Hermes", "shop": "kiosk", "wheelchair": "limited"}}, {"type": "node", "id": 286411164, "lat": 50.9211787, "lon": 6.9189096, "tags": {"note": "2017-12-19: Leerstand/Umbau", "shop": "vacant"}}, {"type": "node", "id": 286414929, "lat": 50.9417781, "lon": 6.9361209, "tags": {"addr:city": "K\u00f6ln", "addr:country": "DE", "addr:housenumber": "25", "addr:postcode": "50672", "addr:street": "Venloer Stra\u00dfe", "brand": "Kamps", "brand:wikidata": "Q1723381", "brand:wikipedia": "de:Kamps (Unternehmen)", "cafe": "yes", "check_date:opening_hours": "2020-10-23", "indoor_seating": "yes", "name": "Kamps", "opening_hours": "Mo-Fr 06:00-18:30; Sa 06:00-14:00; Su 06:00-14:00", "shop": "bakery", "wheelchair": "yes"}}, {"type": "node", "id": 286421552, "lat": 50.9280768, "lon": 6.9357914, "tags": {"addr:city": "K\u00f6ln", "addr:country": "DE", "addr:housenumber": "41", "addr:postcode": "50674", "addr:street": "Z\u00fclpicher Stra\u00dfe", "shop": "vacant", "wheelchair": "yes"}}, {"type": "node", "id": 286456726, "lat": 50.9744695, "lon": 7.0787811, "tags": {"shop": "kiosk", "wheelchair": "no"}}, {"type": "node", "id": 286456728, "lat": 50.9747841, "lon": 7.0753838, "tags": {"name": "K\u00f6nigs Kiosk", "opening_hours": "Mo-Th 08:00-22:00; Fr,Sa 08:00-23:00; Su 09:00-22:00", "shop": "kiosk", "wheelchair": "no"}}, {"type": "node", "id": 286456730, "lat": 50.974903, "lon": 7.0751521, "tags": {"name": "KIOSK", "opening_hours:signed": "no", "shop": "kiosk", "wheelchair": "yes"}}, {"type": "node", "id": 287569444, "lat": 50.9773764, "lon": 6.9493973, "tags": {"name": "Elfies Haarvariete", "shop": "hairdresser", "wheelchair": "no"}}, {"type": "node", "id": 287569446, "lat": 50.9778509, "lon": 6.9492293, "tags": {"name": "Stern-Kiosk", "shop": "kiosk", "wheelchair": "no"}}, {"type": "node", "id": 287589049, "lat": 50.9877363, "lon": 6.9450009, "tags": {"name": "Aydin", "note": "An- und Verkauf von Haushaltsger\u00e4ten", "shop": "appliance"}}, {"type": "node", "id": 288463319, "lat": 50.9797473, "lon": 7.0238058, "tags": {"name": "Haarstudio Fischer", "shop": "hairdresser"}}, {"type": "node", "id": 288880903, "lat": 50.98971, "lon": 7.0340915, "tags": {"name": "B\u00e4ckerei Oebel", "shop": "bakery", "wheelchair": "yes"}}, {"type": "node", "id": 289475622, "lat": 50.9060582, "lon": 7.130761, "tags": {"name": "Baumschule K\u00f6nigsforst", "shop": "garden_centre"}}, {"type": "node", "id": 290830108, "lat": 50.9666445, "lon": 7.0352878}, {"type": "node", "id": 290830109, "lat": 50.9662535, "lon": 7.035378}, {"type": "node", "id": 290830110, "lat": 50.966332, "lon": 7.0357708}, {"type": "node", "id": 290830111, "lat": 50.9667215, "lon": 7.0356814}, {"type": "node", "id": 292182837, "lat": 50.9719868, "lon": 7.0433679, "tags": {"addr:city": "K\u00f6ln", "addr:country": "DE", "addr:housenumber": "389a", "addr:postcode": "51067", "addr:street": "Piccoloministra\u00dfe", "name": "Kiosk & Getr\u00e4nkemarkt Piccolonia", "phone": "+49 221 97779951", "shop": "kiosk", "source": "knowledge + yahoo", "wheelchair": "limited"}}, {"type": "node", "id": 292323626, "lat": 50.9732298, "lon": 7.0509647, "tags": {"brand": "Mini Mix", "brand:wikidata": "Q327854", "brand:wikipedia": "de:Mix Markt", "description": "Russische Waren", "name": "Mini Mix", "opening_hours": "Mo-Fr 09:00-19:00; Sa 09:00-18:00", "shop": "convenience", "source": "survey"}}, {"type": "node", "id": 292680024, "lat": 50.9380336, "lon": 6.8345786}, {"type": "node", "id": 292680025, "lat": 50.936736, "lon": 6.8350447}, {"type": "node", "id": 292680026, "lat": 50.9363829, "lon": 6.8367577}, {"type": "node", "id": 292680041, "lat": 50.9386057, "lon": 6.8308928, "tags": {"addr:city": "K\u00f6ln", "addr:housenumber": "1240", "addr:postcode": "50859", "addr:street": "Aachener Stra\u00dfe", "brand": "Rewe", "brand:wikidata": "Q16968817", "brand:wikipedia": "en:REWE", "name": "Rewe", "opening_hours": "Mo-Sa 07:00-21:00", "shop": "supermarket", "wheelchair": "yes"}}, {"type": "node", "id": 292698126, "lat": 50.9379817, "lon": 6.8367481, "tags": {"shop": "dry_cleaning", "wheelchair": "yes"}}, {"type": "node", "id": 294116840, "lat": 50.9273662, "lon": 6.9438893, "tags": {"addr:city": "K\u00f6ln", "addr:country": "DE", "addr:housenumber": "37", "addr:postcode": "50677", "addr:street": "Salierring", "name": "Sozialistische Selbsthilfe K\u00f6ln", "shop": "second_hand", "wheelchair": "no"}}, {"type": "node", "id": 295805644, "lat": 50.9359175, "lon": 6.9482698}, {"type": "node", "id": 296951627, "lat": 50.9415062, "lon": 7.0511293}, {"type": "node", "id": 296951632, "lat": 50.9415655, "lon": 7.0512008}, {"type": "node", "id": 297491826, "lat": 50.9546699, "lon": 6.9247719, "tags": {"addr:city": "K\u00f6ln", "addr:housenumber": "61", "addr:postcode": "50823", "addr:street": "Ottostra\u00dfe", "name": "Becher's Backhaus", "opening_hours": "Mo-Fr 06:30-18:30; Sa 08:00-13:00; Su 08:00-16:00; PH off", "shop": "bakery", "source": "photography", "toilets:wheelchair": "no", "wheelchair": "no"}}, {"type": "node", "id": 297667378, "lat": 50.955444, "lon": 6.9225842, "tags": {"phone": "+49 178 6540300", "shop": "antiques"}}, {"type": "node", "id": 297805623, "lat": 50.9493673, "lon": 6.9505435, "tags": {"entrance": "main"}}, {"type": "node", "id": 298079656, "lat": 50.946491, "lon": 6.9223676, "tags": {"name": "Juwelier Prestige", "opening_hours": "Mo-Fr 09:30-19:00; Sa 09:30-18:00", "shop": "jewelry"}}, {"type": "node", "id": 299443380, "lat": 50.9509778, "lon": 6.9183682}, {"type": "node", "id": 299443381, "lat": 50.9508775, "lon": 6.9182805}, {"type": "node", "id": 299443412, "lat": 50.9512166, "lon": 6.918013}, {"type": "node", "id": 299443413, "lat": 50.9510278, "lon": 6.9178227}, {"type": "node", "id": 299443414, "lat": 50.9509988, "lon": 6.9178948}, {"type": "node", "id": 299443415, "lat": 50.9508791, "lon": 6.9178957}, {"type": "node", "id": 299443418, "lat": 50.9507047, "lon": 6.9181202}, {"type": "node", "id": 300433800, "lat": 50.9485504, "lon": 6.8491981}, {"type": "node", "id": 300433803, "lat": 50.9478701, "lon": 6.8491477}, {"type": "node", "id": 300433804, "lat": 50.947838, "lon": 6.8488493}, {"type": "node", "id": 300604637, "lat": 50.8656885, "lon": 7.0440568, "tags": {"addr:city": "K\u00f6ln", "addr:country": "DE", "addr:housenumber": "85", "addr:postcode": "51143", "addr:street": "Schmittgasse", "addr:suburb": "Z\u00fcndorf", "contact:phone": "+49 2203 83763", "name": "Alice Friseur Team", "shop": "hairdresser"}}, {"type": "node", "id": 300883765, "lat": 50.8667725, "lon": 7.0459873, "tags": {"description": "Friseursalon f\u00fcr Damen, Kinder und Herren", "name": "Friseur Alexandra", "shop": "hairdresser"}}, {"type": "node", "id": 301162676, "lat": 50.9575555, "lon": 6.9236824, "tags": {"name": "Backk\u00f6nig", "shop": "bakery", "wheelchair": "yes"}}, {"type": "node", "id": 301571651, "lat": 50.9122642, "lon": 6.9350264}, {"type": "node", "id": 301571652, "lat": 50.9126793, "lon": 6.9352459}, {"type": "node", "id": 303222531, "lat": 50.9419455, "lon": 6.9570674, "tags": {"shop": "jewelry", "source": "Time Square", "wheelchair": "yes"}}, {"type": "node", "id": 304561104, "lat": 50.9557072, "lon": 6.9219044, "tags": {"name": "Engelshaar", "operator": "Mo off;Tu-Fr 10:00-17:00;Sa 12:00-16:00;Su, PH off || \"Do-Fr bei Terminvereinbarung bis 20 Uhr\"", "phone": "+49 221 9918095", "shop": "hairdresser", "source": "photography", "wheelchair": "limited"}}, {"type": "node", "id": 304562381, "lat": 50.9546712, "lon": 6.9209252, "tags": {"note": "2019-08-06: Leerstand, zu mieten", "shop": "vacant"}}, {"type": "node", "id": 304563482, "lat": 50.9544014, "lon": 6.9207109, "tags": {"name": "Frnds & Fmly", "opening_hours": "Mo-Sa 12:00-20:00; Su, PH off", "shop": "clothes"}}, {"type": "node", "id": 304594071, "lat": 50.9532707, "lon": 6.9202182, "tags": {"name": "Der Goldene Schnitt", "shop": "hairdresser"}}, {"type": "node", "id": 304594077, "lat": 50.9534623, "lon": 6.9203022, "tags": {"note": "2017-05-31: Leerstand", "shop": "vacant"}}, {"type": "node", "id": 304596710, "lat": 50.9547888, "lon": 6.9217901, "tags": {"name": "Kaplan Russland Reisen", "shop": "travel_agency", "source": "photography"}}, {"type": "node", "id": 304596713, "lat": 50.9549014, "lon": 6.9218884, "tags": {"name": "555", "shop": "kiosk", "source": "photography"}}, {"type": "node", "id": 304596715, "lat": 50.9548478, "lon": 6.921848, "tags": {"name": "Ivoodoo", "shop": "mobile_phone"}}, {"type": "node", "id": 304999590, "lat": 50.9600291, "lon": 6.9372917}, {"type": "node", "id": 304999591, "lat": 50.9603058, "lon": 6.9380962}, {"type": "node", "id": 304999592, "lat": 50.9600933, "lon": 6.9381947}, {"type": "node", "id": 304999595, "lat": 50.9598051, "lon": 6.9374752}, {"type": "node", "id": 304999596, "lat": 50.9599457, "lon": 6.9378835}, {"type": "node", "id": 305167113, "lat": 50.944538, "lon": 6.9559061, "tags": {"name": "Loft 43", "opening_hours": "Mo off; Tu-Fr 14:00-20:00; Sa 12:00-20:00; Su, PH off", "shop": "furniture", "source": "photography", "wheelchair": "yes"}}, {"type": "node", "id": 305167114, "lat": 50.9444119, "lon": 6.9558432, "tags": {"email": "info@pointofcolor.de", "name": "Point of Color", "opening_hours": "Mo-Th 08:30-17:30; Fr 08:30-15:30;Sa, Su, PH off", "phone": "+49 221 258 23 20", "shop": "copyshop", "website": "https://www.pointofcolor.de/"}}, {"type": "node", "id": 306016429, "lat": 50.8577654, "lon": 7.0896787}, {"type": "node", "id": 306016437, "lat": 50.8576595, "lon": 7.0902989}, {"type": "node", "id": 306016438, "lat": 50.8575444, "lon": 7.0899182}, {"type": "node", "id": 306016440, "lat": 50.8575135, "lon": 7.0897394}, {"type": "node", "id": 306087455, "lat": 50.9427127, "lon": 6.9555746, "tags": {"name": "domino", "shop": "hairdresser", "source": "photography", "wheelchair": "no"}}, {"type": "node", "id": 306087456, "lat": 50.9427419, "lon": 6.9552136, "tags": {"name": "Rosenow", "shop": "optician", "source": "photography"}}, {"type": "node", "id": 306098537, "lat": 50.9430119, "lon": 6.9542481, "tags": {"name": "Atrium", "shop": "kiosk", "source": "photography"}}, {"type": "node", "id": 306115021, "lat": 50.9418233, "lon": 6.9553352, "tags": {"name": "Knipper-Kimmel & Univers Reisen GmbH", "shop": "travel_agency", "source": "photography", "toilets:wheelchair": "yes", "website": "https://www.univers-reisen.de/", "wheelchair": "yes"}}, {"type": "node", "id": 307868502, "lat": 50.915743, "lon": 6.9271643, "tags": {"name": "Merzenich", "opening_hours": "Sa 06:00-18:00; Su 07:00-17:00; Mo-Fr 06:00-19:00", "shop": "bakery", "wheelchair": "limited"}}, {"type": "node", "id": 307868550, "lat": 50.9162192, "lon": 6.9276846, "tags": {"addr:city": "K\u00f6ln", "addr:country": "DE", "addr:housenumber": "244", "addr:postcode": "50937", "addr:street": "Luxemburger Stra\u00dfe", "name": "Schmitz und Nittenwilm", "shop": "bakery", "wheelchair": "no"}}, {"type": "node", "id": 307868682, "lat": 50.9151923, "lon": 6.9221224, "tags": {"addr:city": "K\u00f6ln", "addr:country": "DE", "addr:housenumber": "367", "addr:postcode": "50937", "addr:street": "Berrenrather Stra\u00dfe", "name": "Schmitz und Nittenwilm", "opening_hours": "Sa 06:00-14:00; Mo-Fr 06:00-18:30; Su 08:00-17:00", "shop": "bakery", "wheelchair": "limited"}}, {"type": "node", "id": 309770883, "lat": 50.930229, "lon": 6.9209178, "tags": {"addr:housenumber": "65", "addr:street": "Immermannstra\u00dfe", "name": "KIOSK 65", "shop": "kiosk", "wheelchair": "limited"}}, {"type": "node", "id": 309787612, "lat": 50.9261844, "lon": 6.9104475, "tags": {"addr:city": "K\u00f6ln", "addr:country": "DE", "addr:housenumber": "156", "addr:postcode": "50931", "addr:street": "Bachemer Stra\u00dfe", "name": "Spielwaren Dieter van Dillen", "shop": "toys"}}, {"type": "node", "id": 310029311, "lat": 50.9274814, "lon": 6.9093272}, {"type": "node", "id": 310790987, "lat": 50.9382666, "lon": 6.9382149, "tags": {"name": "cutters", "shop": "hairdresser", "toilets:wheelchair": "no", "wheelchair": "no"}}, {"type": "node", "id": 311108517, "lat": 50.9353685, "lon": 7.0188813, "tags": {"name": "Monchhici", "shop": "kiosk", "source": "photography"}}, {"type": "node", "id": 311161057, "lat": 50.9078969, "lon": 7.068833}, {"type": "node", "id": 311161059, "lat": 50.9081388, "lon": 7.0692929}, {"type": "node", "id": 311161061, "lat": 50.9083987, "lon": 7.0689514}, {"type": "node", "id": 311161063, "lat": 50.9087271, "lon": 7.0698854}, {"type": "node", "id": 311161065, "lat": 50.9087124, "lon": 7.0698982}, {"type": "node", "id": 311161545, "lat": 50.9090681, "lon": 7.0705682}, {"type": "node", "id": 311161548, "lat": 50.908581, "lon": 7.069326}, {"type": "node", "id": 311337047, "lat": 50.9596, "lon": 7.0152333}, {"type": "node", "id": 311337049, "lat": 50.9581488, "lon": 7.0141461}, {"type": "node", "id": 311337053, "lat": 50.9583547, "lon": 7.0149836}, {"type": "node", "id": 311365236, "lat": 50.9337177, "lon": 7.0181578, "tags": {"shop": "greengrocer"}}, {"type": "node", "id": 311380009, "lat": 50.9336555, "lon": 7.0186171, "tags": {"shop": "kiosk", "source": "photography"}}, {"type": "node", "id": 311380010, "lat": 50.9336268, "lon": 7.0187588, "tags": {"name": "Milano", "shop": "hairdresser", "source": "photography"}}, {"type": "node", "id": 311382254, "lat": 50.9333304, "lon": 7.0210543, "tags": {"name": "Ilyas", "shop": "hairdresser", "source": "photography"}}, {"type": "node", "id": 311557924, "lat": 50.9584904, "lon": 7.0145216}, {"type": "node", "id": 312149346, "lat": 50.9358133, "lon": 7.0216393, "tags": {"name": "Ibo", "shop": "kiosk", "source": "photography", "wheelchair": "yes"}}, {"type": "node", "id": 312179364, "lat": 50.9392588, "lon": 7.0190029}, {"type": "node", "id": 312383756, "lat": 50.9520136, "lon": 6.9200085, "tags": {"name": "Kifah", "parts": "no", "shop": "car_repair"}}, {"type": "node", "id": 312383759, "lat": 50.9520305, "lon": 6.9203763, "tags": {"name": "J. A.", "note": "Afrikanische Lebensmittel", "origin": "african", "shop": "convenience", "source": "photography"}}, {"type": "node", "id": 313011470, "lat": 50.955128, "lon": 6.9272467, "tags": {"name": "Rheinlandgarage", "parts": "no", "shop": "car_repair", "source": "photography"}}, {"type": "node", "id": 313220145, "lat": 50.8818324, "lon": 7.077594}, {"type": "node", "id": 313220146, "lat": 50.8811963, "lon": 7.0775164}, {"type": "node", "id": 313220147, "lat": 50.881199, "lon": 7.0778196}, {"type": "node", "id": 313220148, "lat": 50.8818726, "lon": 7.0778791}, {"type": "node", "id": 314073273, "lat": 50.9293466, "lon": 6.9133432, "tags": {"addr:city": "K\u00f6ln", "addr:country": "DE", "addr:housenumber": "70", "addr:postcode": "50931", "addr:street": "Theresienstra\u00dfe", "name": "Mallard", "shop": "cosmetics"}}, {"type": "node", "id": 314073276, "lat": 50.9296798, "lon": 6.9131806, "tags": {"addr:city": "K\u00f6ln", "addr:country": "DE", "addr:housenumber": "72", "addr:postcode": "50931", "addr:street": "Theresienstra\u00dfe", "shop": "florist", "wheelchair": "yes"}}, {"type": "node", "id": 314074082, "lat": 50.9305477, "lon": 6.9146583, "tags": {"addr:housenumber": "4", "addr:street": "Klosterstra\u00dfe", "name": "Kiosk Lindenthal", "shop": "kiosk"}}, {"type": "node", "id": 314074084, "lat": 50.930455, "lon": 6.9151394, "tags": {"addr:housenumber": "1", "addr:street": "Klosterstra\u00dfe", "name": "diefriseurek\u00f6ln", "shop": "hairdresser"}}, {"type": "node", "id": 314436886, "lat": 50.9361151, "lon": 6.9133154, "tags": {"name": "Mini Markt", "shop": "kiosk"}}, {"type": "node", "id": 314445648, "lat": 50.9311717, "lon": 6.9181246, "tags": {"addr:city": "K\u00f6ln", "addr:housenumber": "126", "addr:postcode": "50931", "addr:street": "D\u00fcrener Stra\u00dfe", "name": "Heinemann", "shop": "bakery", "wheelchair": "yes"}}, {"type": "node", "id": 314445669, "lat": 50.930526, "lon": 6.9153282, "tags": {"addr:city": "K\u00f6ln", "addr:country": "DE", "addr:housenumber": "179", "addr:postcode": "50931", "addr:street": "D\u00fcrener Stra\u00dfe", "brand": "First Reiseb\u00fcro", "brand:wikidata": "Q573103", "brand:wikipedia": "en:TUI Group", "name": "First Reiseb\u00fcro", "shop": "travel_agency"}}, {"type": "node", "id": 314445675, "lat": 50.9302761, "lon": 6.9155534, "tags": {"addr:city": "K\u00f6ln", "addr:country": "DE", "addr:housenumber": "164", "addr:postcode": "50931", "addr:street": "D\u00fcrener Stra\u00dfe", "addr:suburb": "Lindenthal", "contact:email": "info@pc-office.com", "contact:fax": "+49 221 9327793", "contact:phone": "+49 221 312990", "contact:website": "https://pc-office-cologne.de/", "name": "PC Office Cologne", "opening_hours": "Mo-Fr 09:30-13:00,14:00-18:30; Sa 10:00-14:00", "shop": "computer", "wheelchair": "yes"}}, {"type": "node", "id": 314445679, "lat": 50.9309929, "lon": 6.9164869, "tags": {"shop": "stationery"}}, {"type": "node", "id": 315112483, "lat": 50.9392939, "lon": 7.01913}, {"type": "node", "id": 315112485, "lat": 50.9393015, "lon": 7.0189754}, {"type": "node", "id": 315112486, "lat": 50.9393355, "lon": 7.0191036}, {"type": "node", "id": 315279722, "lat": 50.9754083, "lon": 6.9642063}, {"type": "node", "id": 315279723, "lat": 50.9754149, "lon": 6.9644779}, {"type": "node", "id": 315279724, "lat": 50.9748399, "lon": 6.9644832}, {"type": "node", "id": 315279725, "lat": 50.9748397, "lon": 6.9650196}, {"type": "node", "id": 315279726, "lat": 50.9751029, "lon": 6.9650166}, {"type": "node", "id": 315279727, "lat": 50.9751044, "lon": 6.9649484}, {"type": "node", "id": 315279728, "lat": 50.975627, "lon": 6.9649425}, {"type": "node", "id": 315279729, "lat": 50.9755523, "lon": 6.9642041}, {"type": "node", "id": 315646187, "lat": 50.9299307, "lon": 6.9208408, "tags": {"addr:city": "K\u00f6ln", "addr:country": "DE", "addr:housenumber": "155", "addr:postcode": "50931", "addr:street": "Bachemer Stra\u00dfe", "name": "Lindenthaler Getr\u00e4nkeshop", "shop": "kiosk", "wheelchair": "limited"}}, {"type": "node", "id": 315650003, "lat": 50.9289014, "lon": 6.911273, "tags": {"addr:city": "K\u00f6ln", "addr:country": "DE", "addr:housenumber": "237", "addr:postcode": "50931", "addr:street": "D\u00fcrener Stra\u00dfe", "name": "Cool Flor", "shop": "florist"}}, {"type": "node", "id": 315673693, "lat": 50.9280347, "lon": 6.9098754, "tags": {"name": "Baart", "shop": "optician"}}, {"type": "node", "id": 315673694, "lat": 50.9281629, "lon": 6.9102155, "tags": {"name": "Stumm", "shop": "jewelry"}}, {"type": "node", "id": 315673696, "lat": 50.9283271, "lon": 6.9107343, "tags": {"addr:city": "K\u00f6ln", "addr:country": "DE", "addr:housenumber": "236", "addr:postcode": "50931", "addr:street": "D\u00fcrener Stra\u00dfe", "name": "Berr", "shop": "dry_cleaning"}}, {"type": "node", "id": 315673702, "lat": 50.9295572, "lon": 6.9129027, "tags": {"addr:city": "K\u00f6ln", "addr:country": "DE", "addr:housenumber": "211", "addr:postcode": "50931", "addr:street": "D\u00fcrener Stra\u00dfe", "name": "Dahlmeyer", "shop": "funeral_directors"}}, {"type": "node", "id": 316135317, "lat": 50.9294176, "lon": 6.913458, "tags": {"addr:city": "K\u00f6ln", "addr:country": "DE", "addr:housenumber": "198", "addr:postcode": "50931", "addr:street": "D\u00fcrener Stra\u00dfe", "name": "Deko Factory", "shop": "curtain"}}, {"type": "node", "id": 316144227, "lat": 50.961482, "lon": 7.0219794, "tags": {"name": "Schwarzw\u00e4lder B\u00e4ckerei", "shop": "bakery"}}, {"type": "node", "id": 318338871, "lat": 50.9826894, "lon": 6.9482913}, {"type": "node", "id": 318338872, "lat": 50.9828091, "lon": 6.9485416}, {"type": "node", "id": 318338874, "lat": 50.982385, "lon": 6.9489913}, {"type": "node", "id": 318609469, "lat": 50.9649184, "lon": 7.0214171, "tags": {"name": "FC K\u00f6lsche op dr eck", "shop": "kiosk", "wheelchair": "limited"}}, {"type": "node", "id": 318720317, "lat": 50.9809043, "lon": 7.0304304, "tags": {"name": "KIOSK 101", "shop": "kiosk", "wheelchair": "limited"}}, {"type": "node", "id": 319053678, "lat": 50.9167881, "lon": 6.9236923, "tags": {"addr:city": "K\u00f6ln", "addr:country": "DE", "addr:housenumber": "339", "addr:postcode": "50937", "addr:street": "Berrenrather Stra\u00dfe", "brand": "Edeka", "brand:wikidata": "Q701755", "brand:wikipedia": "de:Edeka", "name": "Edeka", "opening_hours": "Mo-Sa 08:00-20:00", "shop": "supermarket", "wheelchair": "yes"}}, {"type": "node", "id": 320032074, "lat": 50.9578118, "lon": 6.9216392, "tags": {"email": "praxis@vanessa-reinhard.de", "name": "Vanessa Reinhard", "phone": "+49 172 4214223", "shop": "cosmetics", "website": "https://www.vanessa-reinhard.de/"}}, {"type": "node", "id": 320344835, "lat": 51.0660273, "lon": 6.8656843, "tags": {"contact:website": "http://fahrrad-leikeb.de/", "name": "Fahrrad-Leikeb", "shop": "bicycle"}}, {"type": "node", "id": 320884861, "lat": 50.9832058, "lon": 7.0390412, "tags": {"addr:city": "K\u00f6ln", "addr:country": "DE", "addr:housenumber": "215", "addr:postcode": "51061", "addr:street": "Im Weidenbruch", "name": "Casablanca", "shop": "kiosk"}}, {"type": "node", "id": 320990782, "lat": 50.936619, "lon": 6.9465745, "tags": {"name": "Kult", "shop": "clothes", "wheelchair": "yes"}}, {"type": "node", "id": 321250350, "lat": 50.9361934, "lon": 6.9457868, "tags": {"name": "Hapag-LLoyd", "shop": "travel_agency"}}, {"type": "node", "id": 321256732, "lat": 50.9376256, "lon": 6.9481741}, {"type": "node", "id": 321256737, "lat": 50.9376293, "lon": 6.9486687, "tags": {"entrance": "main", "note": "Eingeng Primark", "source": "photography", "wheelchair": "yes"}}, {"type": "node", "id": 321256738, "lat": 50.9373417, "lon": 6.9487324}, {"type": "node", "id": 321256739, "lat": 50.9364864, "lon": 6.9487131, "tags": {"addr:housenumber": "2-4", "addr:postcode": "50667", "addr:street": "Neumarkt", "entrance": "main", "foot": "yes"}}, {"type": "node", "id": 321256740, "lat": 50.9364951, "lon": 6.9481281}, {"type": "node", "id": 321267421, "lat": 50.9395133, "lon": 6.9503535}, {"type": "node", "id": 321267423, "lat": 50.9394644, "lon": 6.9503593}, {"type": "node", "id": 321267496, "lat": 50.9399493, "lon": 6.948797}, {"type": "node", "id": 321338855, "lat": 50.9393062, "lon": 6.9503859, "tags": {"access": "yes", "amenity": "parking_entrance", "fee": "yes", "name": "DuMont-Carr\u00e9", "parking": "multi-storey", "source": "photography", "wheelchair": "yes"}}, {"type": "node", "id": 321351199, "lat": 50.9374678, "lon": 6.9499022, "tags": {"name": "Explorer-Fernreisen", "shop": "travel_agency", "website": "https://www.explorer.de/service/standorte/koeln/"}}, {"type": "node", "id": 321374052, "lat": 50.9531407, "lon": 7.0131958}, {"type": "node", "id": 321374055, "lat": 50.9529546, "lon": 7.0123502}, {"type": "node", "id": 321374057, "lat": 50.9533547, "lon": 7.0121859}, {"type": "node", "id": 321374058, "lat": 50.9538305, "lon": 7.0121173}, {"type": "node", "id": 321374059, "lat": 50.9543172, "lon": 7.0121173}, {"type": "node", "id": 321374060, "lat": 50.9544137, "lon": 7.012191}, {"type": "node", "id": 321374061, "lat": 50.9543886, "lon": 7.0124281}, {"type": "node", "id": 321673596, "lat": 50.9932287, "lon": 7.0294707, "tags": {"shop": "beverages", "wheelchair": "yes"}}, {"type": "node", "id": 321861192, "lat": 50.9531783, "lon": 6.9281024}, {"type": "node", "id": 321861193, "lat": 50.9532804, "lon": 6.9278827}, {"type": "node", "id": 321861194, "lat": 50.9531443, "lon": 6.9280125}, {"type": "node", "id": 321863802, "lat": 50.9525898, "lon": 6.9253186, "tags": {"brand": "Vespa;Piaggio;Kreidler", "name": "L. Etzbach", "phone": "+49 221 551972", "repair": "yes", "safety_inspection": "T\u00dcV", "shop": "motorcycle", "source": "photography"}}, {"type": "node", "id": 321865165, "lat": 50.9529733, "lon": 6.9262983, "tags": {"shop": "vacant"}}, {"type": "node", "id": 321865284, "lat": 50.9529955, "lon": 6.9263938, "tags": {"name": "Sofia's Haarstudio", "shop": "hairdresser", "source": "photography"}}, {"type": "node", "id": 322998829, "lat": 50.8745055, "lon": 6.9560546, "tags": {"name": "Gammersbach", "shop": "butcher"}}, {"type": "node", "id": 322998831, "lat": 50.8736236, "lon": 6.9533383, "tags": {"shop": "books"}}, {"type": "node", "id": 322998833, "lat": 50.8737543, "lon": 6.9526395, "tags": {"shop": "florist"}}, {"type": "node", "id": 322998835, "lat": 50.8757017, "lon": 6.9570714, "tags": {"shop": "hairdresser"}}, {"type": "node", "id": 322998837, "lat": 50.874003, "lon": 6.9548524, "tags": {"shop": "kiosk"}}, {"type": "node", "id": 322998838, "lat": 50.8744449, "lon": 6.9586686, "tags": {"brand": "Edeka", "brand:wikidata": "Q701755", "brand:wikipedia": "de:Edeka", "name": "Edeka", "old_name": "Kaisers Tengelmann", "shop": "supermarket", "wheelchair": "yes"}}, {"type": "node", "id": 322998840, "lat": 50.8802772, "lon": 6.9639517, "tags": {"brand": "Rewe", "brand:wikidata": "Q16968817", "brand:wikipedia": "en:REWE", "name": "Rewe", "shop": "supermarket"}}, {"type": "node", "id": 323157333, "lat": 50.873526, "lon": 6.9542513, "tags": {"shop": "kiosk"}}, {"type": "node", "id": 323157335, "lat": 50.8766859, "lon": 6.958528, "tags": {"name": "Netto", "shop": "supermarket", "wheelchair": "yes"}}, {"type": "node", "id": 323227650, "lat": 50.8623765, "lon": 6.9701071}, {"type": "node", "id": 323227651, "lat": 50.8610504, "lon": 6.9702354}, {"type": "node", "id": 323227652, "lat": 50.8610571, "lon": 6.9704091}, {"type": "node", "id": 323227653, "lat": 50.8607627, "lon": 6.9704376}, {"type": "node", "id": 323227654, "lat": 50.8607926, "lon": 6.9725824}, {"type": "node", "id": 323227655, "lat": 50.8615532, "lon": 6.9725088}, {"type": "node", "id": 323227656, "lat": 50.8615235, "lon": 6.9717384}, {"type": "node", "id": 323227658, "lat": 50.8616852, "lon": 6.9717228, "tags": {"access": "yes", "entrance": "main", "wheelchair": "yes"}}, {"type": "node", "id": 323227659, "lat": 50.8625827, "lon": 6.9712936}, {"type": "node", "id": 323227660, "lat": 50.8625494, "lon": 6.9704304}, {"type": "node", "id": 323227661, "lat": 50.8623895, "lon": 6.9704459}, {"type": "node", "id": 323714860, "lat": 50.9488246, "lon": 6.9117076}, {"type": "node", "id": 323714864, "lat": 50.9485855, "lon": 6.9114648}, {"type": "node", "id": 323714867, "lat": 50.9484915, "lon": 6.9124107}, {"type": "node", "id": 323714868, "lat": 50.9487212, "lon": 6.9118231}, {"type": "node", "id": 323714870, "lat": 50.9487647, "lon": 6.9118636}, {"type": "node", "id": 323714873, "lat": 50.9484645, "lon": 6.9117681}, {"type": "node", "id": 323714875, "lat": 50.9482652, "lon": 6.9121801, "tags": {"entrance": "main"}}, {"type": "node", "id": 323816887, "lat": 50.9467452, "lon": 6.9116923}, {"type": "node", "id": 323816893, "lat": 50.9459312, "lon": 6.9107645}, {"type": "node", "id": 323816897, "lat": 50.946634, "lon": 6.9120971}, {"type": "node", "id": 324404115, "lat": 50.9964226, "lon": 7.0364828, "tags": {"name": "Edeka", "old_name": "Kaisers", "shop": "supermarket", "wheelchair": "yes"}}, {"type": "node", "id": 324404280, "lat": 51.0065617, "lon": 7.0284044, "tags": {"shop": "kiosk"}}, {"type": "node", "id": 324404282, "lat": 51.006832, "lon": 7.0282735, "tags": {"name": "HN", "shop": "hairdresser"}}, {"type": "node", "id": 325189416, "lat": 50.9699654, "lon": 7.0104487, "tags": {"addr:city": "K\u00f6ln", "addr:country": "DE", "addr:housenumber": "81", "addr:postcode": "51063", "addr:street": "Markgrafenstra\u00dfe", "name": "Netto", "shop": "supermarket", "wheelchair": "yes"}}, {"type": "node", "id": 325189646, "lat": 50.9713116, "lon": 7.0101834, "tags": {"addr:city": "K\u00f6ln", "addr:country": "DE", "addr:housenumber": "56", "addr:street": "Berliner Stra\u00dfe", "amenity": "fast_food", "capacity": "20", "cuisine": "turkish", "drive_through": "no", "level": "0", "name": "D\u00fcnya Kebab", "opening_hours": "Mo-Su 07:00-23:00", "opening_hours:covid19": "same", "outdoor_seating": "no", "shop": "bakery", "source": "survey", "takeaway": "yes", "wheelchair": "yes"}}, {"type": "node", "id": 325852369, "lat": 50.9692233, "lon": 7.037055, "tags": {"shop": "kiosk", "wheelchair": "limited"}}, {"type": "node", "id": 325852479, "lat": 50.9694446, "lon": 7.0367624, "tags": {"name": "Host", "shop": "dry_cleaning"}}, {"type": "node", "id": 325852520, "lat": 50.9696404, "lon": 7.0349994, "tags": {"shop": "kiosk", "wheelchair": "limited"}}, {"type": "node", "id": 330005888, "lat": 50.9665404, "lon": 7.0260209, "tags": {"shop": "kiosk"}}, {"type": "node", "id": 330033836, "lat": 50.9673554, "lon": 7.035159}, {"type": "node", "id": 330033837, "lat": 50.9670271, "lon": 7.035324}, {"type": "node", "id": 330033838, "lat": 50.9669041, "lon": 7.0349116}, {"type": "node", "id": 330033839, "lat": 50.9671213, "lon": 7.0347395}, {"type": "node", "id": 330141663, "lat": 50.9360921, "lon": 6.9565485, "tags": {"brand": "Saturn", "brand:wikidata": "Q2543504", "brand:wikipedia": "en:Saturn (retailer)", "name": "Saturn", "opening_hours": "Mo-Sa 10:00-20:00; Su, PH off", "shop": "electronics", "website": "https://www.saturn.de/", "wheelchair": "yes"}}, {"type": "node", "id": 331259600, "lat": 50.9150566, "lon": 7.0017589, "tags": {"shop": "kiosk"}}, {"type": "node", "id": 331311519, "lat": 50.9330055, "lon": 6.9489023, "tags": {"name": "Shalimare Kiosk", "shop": "kiosk"}}, {"type": "node", "id": 331311526, "lat": 50.9330729, "lon": 6.9488879, "tags": {"name": "Shalimare Store", "shop": "convenience"}}, {"type": "node", "id": 331312176, "lat": 50.9370968, "lon": 6.9489736, "tags": {"name": "Butlers", "shop": "interior_decoration"}}, {"type": "node", "id": 331856170, "lat": 50.9365585, "lon": 6.9530435, "tags": {"name": "K\u00e4mpgen", "shop": "shoes", "source": "photography", "wheelchair": "no"}}, {"type": "node", "id": 331933595, "lat": 50.9377263, "lon": 6.9498215, "tags": {"name": "Cut & More", "shop": "hairdresser", "source": "photography", "wheelchair": "yes"}}, {"type": "node", "id": 331933613, "lat": 50.9380078, "lon": 6.9501183, "tags": {"name": "Frankonia", "shop": "hunting", "source": "photography", "website": "https://www.frankonia.de/service/filialen/koeln.html"}}, {"type": "node", "id": 332040049, "lat": 50.954044, "lon": 6.9199319, "tags": {"name": "Beder Juwelier Kuyumcu", "shop": "jewelry", "source": "photography"}}, {"type": "node", "id": 332040050, "lat": 50.9540649, "lon": 6.9198482, "tags": {"name": "Budak", "shop": "travel_agency", "source": "photography"}}, {"type": "node", "id": 332040051, "lat": 50.9542286, "lon": 6.9194034, "tags": {"name": "Gabriel Barbershop & Friseursalon", "opening_hours": "Mo-Sa 09:00-20:00", "shop": "hairdresser", "wheelchair": "limited"}}, {"type": "node", "id": 332418656, "lat": 50.9507275, "lon": 6.9180652}, {"type": "node", "id": 332418663, "lat": 50.9508058, "lon": 6.9182134}, {"type": "node", "id": 332418980, "lat": 50.9504194, "lon": 6.9172486, "tags": {"name": "Diba Haarstudio", "shop": "hairdresser", "wheelchair": "yes"}}, {"type": "node", "id": 332418981, "lat": 50.9502534, "lon": 6.9170924, "tags": {"email": "reservierung@koelnotel.de", "name": "K\u00f6lnotel", "shop": "vacant", "source": "photography", "tourism": "hotel", "website": "http://koelnotel.de"}}, {"type": "node", "id": 333579104, "lat": 50.936614, "lon": 6.9491411, "tags": {"name": "Appelrath-C\u00fcpper", "shop": "clothes", "source": "photography", "website": "https://www.appelrath.com/standorte.html", "wheelchair": "yes"}}, {"type": "node", "id": 333579663, "lat": 50.9365629, "lon": 6.9493561, "tags": {"brand": "Reserved", "brand:wikidata": "Q21809354", "brand:wikipedia": "en:Reserved", "name": "Reserved", "shop": "clothes", "start_date": "2017-03-22"}}, {"type": "node", "id": 333579666, "lat": 50.9366285, "lon": 6.9496665, "tags": {"name": "K\u00e4mpgen", "opening_hours": "Mo-Sa 10:00-20:00; Su, PH off", "shop": "shoes", "source": "photography", "wheelchair": "limited"}}, {"type": "node", "id": 333592697, "lat": 50.9368013, "lon": 6.950164, "tags": {"name": "Der Haarprofi", "shop": "hairdresser", "source": "photography"}}, {"type": "node", "id": 333592701, "lat": 50.9368457, "lon": 6.9501607, "tags": {"brand": "BackWerk", "brand:wikidata": "Q798298", "brand:wikipedia": "de:BackWerk", "name": "Backwerk", "shop": "bakery", "source": "photography", "wheelchair": "limited"}}, {"type": "node", "id": 333594262, "lat": 50.9375208, "lon": 6.9489321, "tags": {"brand": "G\u00f6rtz", "brand:wikidata": "Q1559593", "brand:wikipedia": "de:Ludwig G\u00f6rtz", "name": "G\u00f6rtz", "opening_hours": "Mo-Fr 10:30-20:00; Sa 10:00-20:00", "shop": "shoes", "source": "photography", "wheelchair": "no"}}, {"type": "node", "id": 333595349, "lat": 50.9372517, "lon": 6.9489536, "tags": {"name": "Ortloff", "opening_hours": "Mo-Fr 10:00-20:00; Sa 10:00-19:00", "shop": "decoration", "source": "photography"}}, {"type": "node", "id": 333657897, "lat": 50.949807, "lon": 6.9175994, "tags": {"email": "ehrenfeld@buntbuchhandlung.de", "name": "Bunt", "opening_hours": "Mo-Fr 10:00-19:00; Sa 10:00-16:00", "phone": "+49 221 271 47 39", "shop": "books", "source": "photography", "website": "http://www.buntbuchhandlung.de", "wheelchair": "yes"}}, {"type": "node", "id": 333660315, "lat": 50.9500017, "lon": 6.9180217, "tags": {"email": "info@karnevalesque.de", "name": "Karnevalesque", "operator": "Wiebke Tirrel", "phone": "+49 176 62001886", "shop": "tailor", "source": "photography", "website": "http://www.karnevalesque.de/", "wheelchair": "no"}}, {"type": "node", "id": 335430321, "lat": 50.9492719, "lon": 6.9185241, "tags": {"name": "Bijou Brigitte", "opening_hours": "Mo-Fr 09:30-18:30; Sa 09:30-18:00", "shop": "costume_jewelry", "wheelchair": "yes"}}, {"type": "node", "id": 335430322, "lat": 50.9493109, "lon": 6.918425, "tags": {"brand": "KODi", "brand:wikidata": "Q1778216", "brand:wikipedia": "de:Kodi (Unternehmen)", "name": "KODi", "opening_hours": "Mo-Fr 09:00-20:00; Sa 09:00-19:00", "shop": "houseware", "source": "photography"}}, {"type": "node", "id": 335430329, "lat": 50.9493843, "lon": 6.918269, "tags": {"brand": "Vodafone", "brand:wikidata": "Q122141", "brand:wikipedia": "en:Vodafone", "name": "Vodafone", "opening_hours": "Mo-Fr 10:00-19:00; Sa 10:00-15:00", "shop": "mobile_phone", "source": "photography", "wheelchair": "limited"}}, {"type": "node", "id": 335430332, "lat": 50.9494331, "lon": 6.9181749, "tags": {"name": "Martex Moden", "opening_hours": "Mo-Fr 10:00-19:00; Sa 10:00-18:00", "shop": "clothes", "source": "photography", "wheelchair": "yes"}}, {"type": "node", "id": 335430334, "lat": 50.9494807, "lon": 6.918091, "tags": {"name": "Textilpflege Tina", "opening_hours": "Mo-Sa 09:00-14:00", "shop": "dry_cleaning", "source": "photography", "wheelchair": "limited"}}, {"type": "node", "id": 335430336, "lat": 50.9495485, "lon": 6.9179607, "tags": {"brand": "O2", "brand:wikidata": "Q1759255", "brand:wikipedia": "en:Telef\u00f3nica Europe", "name": "O2", "opening_hours:signed": "no", "shop": "mobile_phone", "source": "photography"}}, {"type": "node", "id": 335708231, "lat": 50.9248517, "lon": 6.914435, "tags": {"shop": "kiosk"}}, {"type": "node", "id": 336418052, "lat": 50.9501858, "lon": 6.9148648, "tags": {"addr:city": "K\u00f6ln", "addr:housenumber": "389", "addr:postcode": "50825", "addr:street": "Venloer Stra\u00dfe", "name": "B.O.C.", "opening_hours": "Mo-Sa 10:00-19:00", "phone": "+49 221 50055730", "shop": "bicycle", "website": "https://www.boc24.de/info/fahrrad-koeln-boc-markt", "wheelchair": "yes"}}, {"type": "node", "id": 336681456, "lat": 50.9497907, "lon": 6.9180852, "tags": {"name": "Jacky's Kiosk", "shop": "kiosk"}}, {"type": "node", "id": 336687345, "lat": 50.9501861, "lon": 6.918629, "tags": {"name": "M. Wendeler", "parts": "no", "shop": "car_repair", "source": "photography"}}, {"type": "node", "id": 336693244, "lat": 50.9492173, "lon": 6.9186654, "tags": {"addr:city": "K\u00f6ln", "addr:housenumber": "310-316", "addr:postcode": "50823", "addr:street": "Venloer Stra\u00dfe", "brand": "dm", "brand:wikidata": "Q266572", "brand:wikipedia": "en:Dm-drogerie markt", "name": "dm", "opening_hours": "Mo-Sa 08:30-20:00; Su, PH off", "payment:cash": "yes", "payment:maestro": "yes", "payment:mastercard": "yes", "payment:visa": "yes", "payment:visa_debit": "yes", "phone": "+49 221 5008427", "ref": "300", "ref_1": "300", "shop": "chemist", "source": "photography", "toilets": "no", "wheelchair": "yes"}}, {"type": "node", "id": 337657141, "lat": 50.9707825, "lon": 7.0094385, "tags": {"addr:city": "K\u00f6ln", "addr:country": "DE", "addr:housenumber": "46", "addr:postcode": "51063", "addr:street": "Berliner Stra\u00dfe", "name": "Kargin", "shop": "kiosk", "source": "survey", "wheelchair": "no"}}, {"type": "node", "id": 337657148, "lat": 50.9710075, "lon": 7.0099648, "tags": {"addr:city": "K\u00f6ln", "addr:country": "DE", "addr:housenumber": "52", "addr:postcode": "51063", "addr:street": "Berliner Stra\u00dfe", "brand": "Rossmann", "contact:phone": "+49 221 2973608", "contact:website": "https://www.rossmann.de", "name": "Rossmann", "opening_hours": "Mo-Fr 09:00-19:00; Sa 09:00-15:00; PH off", "operator": "Dirk Rossmann GmbH", "ref:shop:num": "1299", "ref:vatin": "DE115055186", "shop": "chemist", "wheelchair": "yes"}}, {"type": "node", "id": 337657162, "lat": 50.9716003, "lon": 7.0100728, "tags": {"addr:city": "K\u00f6ln", "addr:country": "DE", "addr:housenumber": "63", "addr:postcode": "51063", "addr:street": "Berliner Stra\u00dfe", "name": "Akaslan Elektronik", "shop": "electronics", "source": "survey"}}, {"type": "node", "id": 337657199, "lat": 50.9738473, "lon": 7.01227, "tags": {"amenity": "fuel", "name": "Aral", "opening_hours": "Mo-Fr 06:00-22:00, Sa 07:00-22:00; Su 08:00-22:00", "operator": "Aral AG", "shop": "convenience", "source": "survey", "wheelchair": "yes"}}, {"type": "node", "id": 338448074, "lat": 50.9504683, "lon": 6.9144217, "tags": {"addr:city": "K\u00f6ln", "addr:housenumber": "389", "addr:postcode": "50825", "addr:street": "Venloer Stra\u00dfe", "email": "koeln@rs-moebel.de", "fax": "+49 221 428488", "name": "RS-M\u00f6bel", "opening_hours": "Mo-Sa 09:00-19:00", "phone": "+49 221 427777", "shop": "furniture", "source": "photography", "website": "http://www.rs-moebel.de/cms/index.php?id=2", "wheelchair": "yes"}}, {"type": "node", "id": 338448083, "lat": 50.9501994, "lon": 6.9163476, "tags": {"note": "2019-01-07: Umbau", "shop": "vacant"}}, {"type": "node", "id": 338655971, "lat": 50.9503457, "lon": 6.9160993, "tags": {"name": "Basar Ankara", "shop": "supermarket", "source": "photography", "wheelchair": "yes"}}, {"type": "node", "id": 338655974, "lat": 50.9504595, "lon": 6.9159854, "tags": {"name": "HEN WI", "shop": "shoes", "source": "photography"}}, {"type": "node", "id": 338655980, "lat": 50.9505223, "lon": 6.9159029, "tags": {"name": "Ergin Kiosk", "shop": "kiosk", "source": "photography"}}, {"type": "node", "id": 338655984, "lat": 50.9506318, "lon": 6.9157697, "tags": {"name": "Fayon", "shop": "jewelry", "source": "photography"}}, {"type": "node", "id": 338894581, "lat": 50.9310219, "lon": 7.0404633, "tags": {"name": "Rewe Supermarkt", "opening_hours": "Mo-Sa 07:00-22:00", "operator": "Rewe", "shop": "supermarket", "wheelchair": "yes"}}, {"type": "node", "id": 338948231, "lat": 50.9741304, "lon": 7.0134239, "tags": {"name": "Lidl", "shop": "supermarket", "wheelchair": "yes"}}, {"type": "node", "id": 340232022, "lat": 50.975305, "lon": 7.0144136, "tags": {"addr:city": "K\u00f6ln", "addr:country": "DE", "addr:housenumber": "143", "addr:postcode": "51063", "addr:street": "Berliner Stra\u00dfe", "amenity": "internet_cafe", "internet_access": "terminal", "name": "VIP", "opening_hours": "Mo-Fr 06:00-01:00; Sa 07:00-00:15; Su 09:00-02:00", "operator": "Yendi T\u00fcrker", "shop": "kiosk"}}, {"type": "node", "id": 340232028, "lat": 50.9748942, "lon": 7.0137541, "tags": {"addr:city": "K\u00f6ln", "addr:country": "DE", "addr:housenumber": "133", "addr:postcode": "51063", "addr:street": "Berliner Stra\u00dfe", "name": "Kiosk", "shop": "beverages", "wheelchair": "yes"}}, {"type": "node", "id": 340351163, "lat": 50.9709722, "lon": 7.007264, "tags": {"addr:city": "K\u00f6ln", "addr:country": "DE", "addr:housenumber": "20", "addr:postcode": "51063", "addr:street": "Hacket\u00e4uerstra\u00dfe", "brand": "independent", "email": "usbikecorner@netcologne.de", "fax": "+49-221-6401730", "name": "US_Bike Corner", "opening_hours": "Mo-Fr 08:00-17:00", "operator": "Tibor und Rainer Varga", "phone": "+49-221-6402132", "shop": "motorcycle", "website": "http://www.usbikecorner.de/"}}, {"type": "node", "id": 340882093, "lat": 50.9694878, "lon": 7.0071539, "tags": {"addr:city": "K\u00f6ln", "addr:country": "DE", "addr:housenumber": "2-6", "addr:postcode": "51063", "addr:street": "Berliner Stra\u00dfe", "name": "Teppichboden-Fachmarkt Hossdorf", "shop": "carpet"}}, {"type": "node", "id": 341012136, "lat": 50.9698675, "lon": 7.0072539, "tags": {"addr:city": "K\u00f6ln", "addr:country": "DE", "addr:housenumber": "1-9", "addr:postcode": "51063", "addr:street": "Berliner Stra\u00dfe", "name": "Miele Center K\u00f6ln", "name:de": "Miele Center K\u00f6ln. Harbeke", "opening_hours": "Mo-Fr 10:00-19:00; Sa 10:00-16:00", "operator": "Harbeke", "shop": "kitchen"}}, {"type": "node", "id": 341012138, "lat": 50.9699448, "lon": 7.00744, "tags": {"addr:city": "K\u00f6ln", "addr:country": "DE", "addr:housenumber": "11", "addr:postcode": "51063", "addr:street": "Berliner Stra\u00dfe", "name": "Butik 34", "shop": "boutique", "source": "survey", "wheelchair": "limited"}}, {"type": "node", "id": 342404021, "lat": 50.998682, "lon": 6.9960997, "tags": {"email": "getraenkeblitz01@aol.com", "name": "Getr\u00e4nke Blitz", "opening_hours": "Mo-Tu,Th-Fr 08:00-19:00; We,Sa 08:00-15:00", "phone": "+49 221 662123", "shop": "beverages", "wheelchair": "yes", "wheelchair:description": "kein WC"}}, {"type": "node", "id": 343471426, "lat": 50.9716482, "lon": 7.010147, "tags": {"addr:city": "K\u00f6ln", "addr:country": "DE", "addr:housenumber": "65", "addr:postcode": "51063", "addr:street": "Berliner Stra\u00dfe", "description": "\u00c4nderungsschneiderei", "shop": "tailor", "source": "survey"}}, {"type": "node", "id": 343471444, "lat": 50.9711929, "lon": 7.0100527, "tags": {"addr:city": "K\u00f6ln", "addr:country": "DE", "addr:housenumber": "54", "addr:postcode": "51063", "addr:street": "Berliner Stra\u00dfe", "brand": "Kamps", "brand:wikidata": "Q1723381", "brand:wikipedia": "de:Kamps (Unternehmen)", "internet_access": "wlan", "internet_access:fee": "no", "name": "Kamps", "opening_hours": "Mo-Fr 06:00-18:30; Sa 06:00-14:00; Su 06:00-13:00", "phone": "+49 221 627073", "shop": "bakery", "source": "survey", "website": "https://kamps.de/standort/kamps-baeckerei-koeln-berliner-strasse-54", "wheelchair": "yes"}}, {"type": "node", "id": 343471454, "lat": 50.9690653, "lon": 7.0063826, "tags": {"name": "Melisse", "shop": "florist", "wheelchair": "no"}}, {"type": "node", "id": 343578700, "lat": 50.964174, "lon": 7.0024076, "tags": {"addr:city": "K\u00f6ln", "addr:country": "DE", "addr:housenumber": "13", "addr:postcode": "51063", "addr:street": "Regentenstra\u00dfe", "shop": "hairdresser"}}, {"type": "node", "id": 343578715, "lat": 50.9626578, "lon": 7.0030186, "tags": {"addr:city": "K\u00f6ln", "addr:country": "DE", "addr:housenumber": "54", "addr:postcode": "51063", "addr:street": "Buchheimer Stra\u00dfe", "brand": "Netto Marken-Discount", "brand:wikidata": "Q879858", "brand:wikipedia": "de:Netto Marken-Discount", "name": "Netto Marken-Discount", "opening_hours": "Mo-Sa 07:00-22:00", "shop": "supermarket", "wheelchair": "no"}}, {"type": "node", "id": 343578717, "lat": 50.9624769, "lon": 7.003749, "tags": {"addr:city": "K\u00f6ln", "addr:country": "DE", "addr:housenumber": "57-59", "addr:postcode": "51063", "addr:street": "Buchheimer Stra\u00dfe", "name": "Jaeger", "opening_hours": "Mo-Sa 09:00-13:00, Mo,Tu,Th,Fr 14:30-18:30", "shop": "optician", "wheelchair": "limited"}}, {"type": "node", "id": 343578768, "lat": 50.9665551, "lon": 7.0068389, "tags": {"addr:street": "Clevischer Ring", "name": "G\u00f6reme", "shop": "kiosk", "wheelchair": "yes"}}, {"type": "node", "id": 343578772, "lat": 50.9675862, "lon": 7.0068701, "tags": {"addr:city": "K\u00f6ln", "addr:country": "DE", "addr:housenumber": "84", "addr:postcode": "51063", "addr:street": "Clevischer Ring", "shop": "convenience", "style": "russian"}}, {"type": "node", "id": 343578789, "lat": 50.9717917, "lon": 7.0082831, "tags": {"addr:city": "K\u00f6ln", "addr:country": "DE", "addr:housenumber": "34", "addr:postcode": "51063", "addr:street": "Hacket\u00e4uerstra\u00dfe", "name": "Top Kiosk", "shop": "kiosk", "source": "survey", "wheelchair": "no"}}, {"type": "node", "id": 343578799, "lat": 50.9730813, "lon": 7.009697, "tags": {"name": "Kiosk", "shop": "beverages", "source": "survey"}}, {"type": "node", "id": 344881981, "lat": 50.9678848, "lon": 6.8999145, "tags": {"name": "Kio-Getr\u00e4nkeshop", "shop": "kiosk"}}, {"type": "node", "id": 345555220, "lat": 50.9853853, "lon": 6.9937467, "tags": {"name": "Kiosk", "opening_hours": "Mo-Fr 06:00-23:00; Sa 07:30-23:30; Su 08:00-23:00", "phone": "+49 173 5638683", "shop": "convenience"}}, {"type": "node", "id": 345583343, "lat": 51.0011371, "lon": 6.9804811, "tags": {"name": "B\u00e4ckerei Kraus", "old_name": "Edeka Getr\u00e4nkemarkt", "shop": "bakery", "source": "survey", "wheelchair": "yes"}}, {"type": "node", "id": 345583364, "lat": 50.9996725, "lon": 6.9831889, "tags": {"addr:city": "K\u00f6ln", "addr:housenumber": "2", "addr:postcode": "51061", "addr:street": "Einsteinstra\u00dfe", "brand": "Penny", "brand:wikidata": "Q284688", "brand:wikipedia": "en:Penny (supermarket)", "name": "Penny", "opening_hours": "Mo-Sa 08:00-21:00", "shop": "supermarket", "wheelchair": "yes"}}, {"type": "node", "id": 345724243, "lat": 50.9165001, "lon": 6.9265828, "tags": {"name": "Mayersche", "opening_hours": "Mo-Fr 09:30-19:00; Sa 09:30-18:00", "shop": "books", "wheelchair": "limited"}}, {"type": "node", "id": 345724552, "lat": 50.9162207, "lon": 6.9264123, "tags": {"addr:city": "K\u00f6ln", "addr:housenumber": "44-46", "addr:postcode": "50937", "addr:street": "S\u00fclzburgstra\u00dfe", "brand": "Aldi S\u00fcd", "brand:wikidata": "Q41171672", "brand:wikipedia": "en:Aldi", "name": "Aldi S\u00fcd", "opening_hours": "Mo-Sa 08:00-21:00", "shop": "supermarket", "wheelchair": "yes"}}, {"type": "node", "id": 345758239, "lat": 50.9169142, "lon": 6.9239071, "tags": {"name": "Kiosk Yilmaz", "shop": "kiosk", "wheelchair": "no"}}, {"type": "node", "id": 346333615, "lat": 50.9675057, "lon": 6.8736289, "tags": {"name": "Sonnenblumen B\u00e4ckerei", "opening_hours": "Mo-Fr 07:00-16:00; Sa,Su,PH 08:00-12:00", "shop": "bakery", "wheelchair": "no"}}, {"type": "node", "id": 347532457, "lat": 50.9406438, "lon": 6.9570415, "tags": {"name": "Chopard", "shop": "jewelry", "source": "photography", "wheelchair": "no"}}, {"type": "node", "id": 347536222, "lat": 50.9408428, "lon": 6.9564593, "tags": {"name": "Aigner", "opening_hours": "Mo-Fr 10:00-19:00; Sa 10:00-18:00", "shop": "clothes", "source": "photography", "wheelchair": "yes"}}, {"type": "node", "id": 347536224, "lat": 50.9406678, "lon": 6.9564097, "tags": {"name": "Zwilling", "shop": "hardware", "source": "photography"}}, {"type": "node", "id": 347536225, "lat": 50.9405919, "lon": 6.9564491, "tags": {"name": "4711", "shop": "gift", "source": "photography"}}, {"type": "node", "id": 347536226, "lat": 50.9405376, "lon": 6.9567167, "tags": {"name": "Swarowski", "shop": "jewelry", "source": "photography", "toilets:wheelchair": "no", "wheelchair": "yes"}}, {"type": "node", "id": 347536227, "lat": 50.9403644, "lon": 6.9566868, "tags": {"name": "Merzenich", "outdoor_seating": "yes", "shop": "bakery", "source": "photography", "wheelchair": "limited"}}, {"type": "node", "id": 347537031, "lat": 50.9402043, "lon": 6.9560497, "tags": {"name": "Breitling", "shop": "watches", "website": "https://www.breitling.com/de-de/stores/de/koln/1016706/breitling-boutique-koln/"}}, {"type": "node", "id": 347538365, "lat": 50.9406082, "lon": 6.9561977, "tags": {"name": "Eye Catcher", "opening_hours": "Mo-Sa 10:00-19:00", "phone": "+49 221 2572742", "shop": "optician", "website": "http://www.eyecatcher.de/index.php/koeln.html"}}, {"type": "node", "id": 347538367, "lat": 50.9406045, "lon": 6.9562616, "tags": {"name": "Montblanc", "shop": "stationery", "source": "photography"}}, {"type": "node", "id": 347538369, "lat": 50.9405985, "lon": 6.956373, "tags": {"email": "info@co.cologne", "name": "CO Cologne", "opening_hours": "Mo-Fr 10:00-18:30; Sa 11:00-18:00; Su, PH off", "phone": "+49 221 27129600", "shop": "jewelry", "source": "photography", "website": "https://co.cologne/"}}, {"type": "node", "id": 347766723, "lat": 50.917905, "lon": 6.9248811, "tags": {"addr:city": "K\u00f6ln", "addr:housenumber": "217", "addr:postcode": "50937", "addr:street": "Berrenrather Stra\u00dfe", "brand": "Rewe City", "brand:wikidata": "Q16968817", "brand:wikipedia": "en:REWE", "name": "Rewe City", "opening_hours": "Mo-Fr 07:00-24:00; Sa 07:00-22:00", "shop": "supermarket", "wheelchair": "yes"}}, {"type": "node", "id": 347766725, "lat": 50.9174663, "lon": 6.9250315, "tags": {"addr:city": "K\u00f6ln", "addr:housenumber": "37", "addr:postcode": "50937", "addr:street": "S\u00fclzburgstra\u00dfe", "brand": "Rewe City", "brand:wikidata": "Q16968817", "brand:wikipedia": "en:REWE", "name": "Rewe City", "opening_hours": "Mo-Fr 07:00-24:00; Sa 07:00-22:00", "shop": "supermarket", "wheelchair": "yes"}}, {"type": "node", "id": 348344743, "lat": 51.0018844, "lon": 7.0350096, "tags": {"addr:postcode": "51069", "name": "Die Getr\u00e4nke Profis", "opening_hours": "Mo-Fr 09:00-19:00; Sa 08:00-16:00", "phone": "+49 221 602084", "shop": "beverages", "website": "http://www.dgp-die-getr\u00e4nke-profis.info", "wheelchair": "yes"}}, {"type": "node", "id": 348344751, "lat": 51.0012292, "lon": 7.0351327, "tags": {"addr:city": "K\u00f6ln", "addr:country": "DE", "addr:housenumber": "9-17", "addr:postcode": "51069", "addr:street": "R\u00f6nsahler Stra\u00dfe", "name": "Wilms", "note": "ehemals garden_center", "phone": "+49-221-96064-0", "shop": "vacant", "wheelchair": "yes"}}, {"type": "node", "id": 348452783, "lat": 50.9400211, "lon": 6.9586334, "tags": {"note": "2014-04-01: Leerstand", "shop": "vacant", "wheelchair": "limited"}}, {"type": "node", "id": 348474175, "lat": 50.9365317, "lon": 6.9557635, "tags": {"brand": "Apple Store", "brand:wikidata": "Q421253", "brand:wikipedia": "en:Apple Store", "name": "Apple Store", "opening_hours": "Mo-Sa 10:00-20:00", "shop": "electronics", "short_name": "Apple", "start_date": "2017-03-25", "wheelchair": "Yes"}}, {"type": "node", "id": 348474184, "lat": 50.936698, "lon": 6.9561571, "tags": {"brand": "Rewe To Go", "brand:wikidata": "Q16968817", "brand:wikipedia": "en:REWE", "name": "Rewe To Go", "opening_hours": "Mo-Th 07:00-22:00; Fr 07:00-24:00; Sa 08:00-24:00; Su 11:00-23:00", "operator": "REWE Markt GmbH", "shop": "convenience", "wheelchair": "yes"}}, {"type": "node", "id": 348474189, "lat": 50.9364595, "lon": 6.9561628, "tags": {"indoor_seating": "yes", "name": "Merzenich", "opening_hours": "Mo-Fr 07:00-20:00; Sa 06:15-20:00; Su 09:00-17:30", "outdoor_seating": "pedestrian_zone", "shop": "bakery", "source": "yahoo;photography", "wheelchair": "limited"}}, {"type": "node", "id": 348485554, "lat": 50.9367431, "lon": 6.9563748, "tags": {"name": "Wempe", "shop": "jewelry", "source": "yahoo;photography", "website": "https://www.wempe.de/artikel-51-bereich-germany.htm"}}, {"type": "node", "id": 348485564, "lat": 50.9366038, "lon": 6.9563915, "tags": {"note": "2016-10-07: Das ganze Haus steht leer, Fenster zugemauert", "shop": "vacant"}}, {"type": "node", "id": 348486288, "lat": 50.9366472, "lon": 6.9563885, "tags": {"note": "2018-10-19: Leerstand", "shop": "vacant"}}, {"type": "node", "id": 348530437, "lat": 50.9366204, "lon": 6.9550127, "tags": {"addr:city": "K\u00f6ln", "addr:country": "DE", "addr:housenumber": "32-34", "addr:postcode": "50667", "addr:street": "Schildergasse", "brand": "Rossmann", "brand:wikidata": "Q316004", "brand:wikipedia": "de:Dirk Rossmann GmbH", "contact:phone": "+49 221 98233306", "contact:website": "https://www.rossmann.de", "name": "Rossmann", "opening_hours": "Mo-Fr 09:00-21:00; Sa 09:00-21:00; Su off; PH off", "operator": "Dirk Rossmann GmbH", "ref:shop:num": "3333", "ref:vatin": "DE115055186", "shop": "chemist"}}, {"type": "node", "id": 348530461, "lat": 50.9366858, "lon": 6.9554003, "tags": {"brand": "H&M", "brand:wikidata": "Q188326", "brand:wikipedia": "en:H&M", "name": "H&M", "shop": "clothes", "source": "yahoo;photography", "wheelchair": "limited"}}, {"type": "node", "id": 348530468, "lat": 50.9367479, "lon": 6.9557213, "tags": {"brand": "New Yorker", "brand:wikidata": "Q706421", "brand:wikipedia": "en:New Yorker (clothing)", "name": "New Yorker", "opening_hours": "Mo-Sa 10:00-20:00", "shop": "clothes", "source": "yahoo;photography", "wheelchair": "limited"}}, {"type": "node", "id": 348533305, "lat": 50.9367694, "lon": 6.9558209, "tags": {"brand": "Rituals", "brand:wikidata": "Q62874140", "name": "Rituals", "shop": "cosmetics"}}, {"type": "node", "id": 348533311, "lat": 50.9368374, "lon": 6.9559499, "tags": {"brand": "Swatch", "brand:wikidata": "Q573422", "brand:wikipedia": "en:Swatch", "email": "swatchstore.koeln@swatchgroup.com", "name": "Swatch", "opening_hours": "Mo-Sa 10:00-20:00; Su, PH off", "phone": "+49 221 255188", "shop": "watches", "website": "https://www.swatch.com/de_de/store-locator/germany/nordrhein-westfalen/koeln/schildergasse"}}, {"type": "node", "id": 350487954, "lat": 50.9838819, "lon": 7.027481, "tags": {"addr:city": "K\u00f6ln", "addr:country": "DE", "addr:housenumber": "438", "addr:postcode": "51061", "addr:street": "Berliner Stra\u00dfe", "name": "Monschau", "shop": "electronics"}}, {"type": "node", "id": 350488271, "lat": 50.9834553, "lon": 7.0219239, "tags": {"amenity": "cafe", "name": "Stehcaf\u00e9 Yilmaz", "shop": "kiosk"}}, {"type": "node", "id": 352663820, "lat": 50.9432305, "lon": 6.9606486, "tags": {"name": "Currywurst", "shop": "kiosk", "source": "photography"}}, {"type": "node", "id": 352663828, "lat": 50.9432205, "lon": 6.9606988, "tags": {"name": "M. Cywan", "shop": "travel_agency", "source": "photography"}}, {"type": "node", "id": 352671656, "lat": 50.944993, "lon": 6.958358, "tags": {"name": "Multishop", "shop": "kiosk", "source": "photography"}}, {"type": "node", "id": 352673139, "lat": 50.9437072, "lon": 6.9606389, "tags": {"name": "Frenzen", "shop": "travel_agency", "source": "photography", "website": "https://www.reisebuero-frenzen.de/"}}, {"type": "node", "id": 352677660, "lat": 50.9456219, "lon": 6.9613379, "tags": {"name": "Nida Kiosk", "shop": "kiosk", "source": "photography"}}, {"type": "node", "id": 352976211, "lat": 50.9575, "lon": 6.9191417, "tags": {"clothes": "women", "name": "absolute", "opening_hours": "Mo-Fr 10:00-18:30; Sa 10:00-14:00; Su, PH off", "shop": "clothes"}}, {"type": "node", "id": 352976213, "lat": 50.9577878, "lon": 6.9189972, "tags": {"name": "Airpaq", "shop": "bag", "website": "https://deutsch.airpaq.de"}}, {"type": "node", "id": 352976214, "lat": 50.9580123, "lon": 6.9188445, "tags": {"name": "Vintage & Vinyl", "shop": "antiques"}}, {"type": "node", "id": 352978076, "lat": 50.9580749, "lon": 6.9194694, "tags": {"name": "Fu\u00dfpflege Hannelore Braun", "phone": "+49 163 2416307", "shop": "computer", "source": "photography", "toilets:wheelchair": "no", "wheelchair": "yes"}}, {"type": "node", "id": 353934369, "lat": 50.9194671, "lon": 6.9268861, "tags": {"name": "First Clean 24", "shop": "dry_cleaning", "wheelchair": "limited"}}, {"type": "node", "id": 353945432, "lat": 50.9215515, "lon": 6.9288288, "tags": {"created_by": "Merkaartor 0.12", "name": "Schmitz und Nittenwilm", "opening_hours": "Mo-Fr 06:00-18:30; Sa 06:00-14:00", "shop": "bakery", "wheelchair": "yes"}}, {"type": "node", "id": 354528003, "lat": 50.9106991, "lon": 6.9418419, "tags": {"name": "Schmitz-Nittenwilm", "opening_hours": "Mo-Fr 06:00-18:30; Sa 06:00-15:00; Su 08:00-17:00", "shop": "bakery", "wheelchair": "no"}}, {"type": "node", "id": 354919264, "lat": 50.9382356, "lon": 6.9425483, "tags": {"name": "Think Twice Vintage", "second_hand": "yes", "shop": "clothes"}}, {"type": "node", "id": 354919871, "lat": 50.9508518, "lon": 6.9276562, "tags": {"name": "Eco-Express", "opening_hours": "Mo-Sa 06:00-23:00; Su, PH off", "shop": "laundry", "source": "photography", "website": "http://www.waschsalon.de/waschsalons/shop/location/K%C3%B6ln/shop/Gutenbergstr.+73+%28Subbelratherstr.%29"}}, {"type": "node", "id": 356176491, "lat": 50.9280991, "lon": 6.9352849, "tags": {"addr:city": "K\u00f6ln", "addr:country": "DE", "addr:housenumber": "56", "addr:postcode": "50674", "addr:street": "Z\u00fclpicher Stra\u00dfe", "name": "Kiosk K\u00f6nig", "shop": "kiosk", "wheelchair": "limited"}}, {"type": "node", "id": 357140694, "lat": 50.9369489, "lon": 6.9455021, "tags": {"note": "2019-11-14: Leerstand", "shop": "vacant"}}, {"type": "node", "id": 357140696, "lat": 50.9369399, "lon": 6.9453566, "tags": {"brand": "Tchibo", "brand:wikidata": "Q564213", "brand:wikipedia": "de:Tchibo", "name": "Tchibo", "opening_hours": "Mo-Fr 09:00-19:30; Sa 09:30-19:30", "shop": "coffee", "source": "photography", "wheelchair": "limited"}}, {"type": "node", "id": 357491374, "lat": 50.9817055, "lon": 7.0339856, "tags": {"addr:city": "K\u00f6ln", "addr:country": "DE", "addr:housenumber": "145", "addr:postcode": "51061", "addr:street": "Im Weidenbruch", "name": "Laschke", "shop": "electronics"}}, {"type": "node", "id": 357904176, "lat": 50.928686, "lon": 6.9572515, "tags": {"addr:city": "K\u00f6ln", "addr:housenumber": "189", "addr:postcode": "50678", "addr:street": "Severinstra\u00dfe", "name": "Garin", "network": "VRS", "operator:VRS": "KVB", "shop": "kiosk", "shop:VRS": "ticket", "source": "photography"}}, {"type": "node", "id": 358821417, "lat": 50.9193973, "lon": 6.9101352, "tags": {"name": "Trinkhalle", "shop": "kiosk"}}, {"type": "node", "id": 358823765, "lat": 50.9201254, "lon": 6.9145596, "tags": {"name": "Kiosk Lila", "shop": "kiosk"}}, {"type": "node", "id": 358829345, "lat": 50.9205299, "lon": 6.91546, "tags": {"addr:city": "K\u00f6ln", "addr:country": "DE", "addr:housenumber": "2", "addr:postcode": "50935", "addr:street": "Lindenthalg\u00fcrtel", "name": "La Vite", "shop": "kiosk"}}, {"type": "node", "id": 358830782, "lat": 50.9204824, "lon": 6.9167517, "tags": {"addr:housenumber": "130", "addr:street": "Gerolsteiner Stra\u00dfe", "name": "Ladenkiosk", "shop": "kiosk"}}, {"type": "node", "id": 358831947, "lat": 50.9203083, "lon": 6.9156621, "tags": {"addr:city": "K\u00f6ln", "addr:country": "DE", "addr:housenumber": "96", "addr:postcode": "50937", "addr:street": "S\u00fclzg\u00fcrtel", "name": "Bergheim\u00b4s", "shop": "bakery"}}, {"type": "node", "id": 359052735, "lat": 50.9277932, "lon": 6.9563984}, {"type": "node", "id": 359061177, "lat": 50.9296555, "lon": 6.9567399, "tags": {"shop": "kiosk", "source": "photography"}}, {"type": "node", "id": 359193995, "lat": 50.9272083, "lon": 6.9392799, "tags": {"addr:city": "K\u00f6ln", "addr:country": "DE", "addr:housenumber": "44", "addr:street": "Luxemburger Stra\u00dfe", "name": "B\u00fcdchen", "opening_hours:signed": "no", "shop": "kiosk", "wheelchair": "no"}}, {"type": "node", "id": 359862711, "lat": 50.9360162, "lon": 6.949381, "tags": {"name": "Charlotte", "name_old": "Ehinger-Schwarz", "shop": "jewelry", "source": "photography", "website": "http://charlotte-koeln.de/"}}, {"type": "node", "id": 360389419, "lat": 50.935505, "lon": 6.9566996, "tags": {"brand": "Rewe City", "brand:wikidata": "Q16968817", "brand:wikipedia": "en:REWE", "name": "Rewe City", "opening_hours": "Mo-Fr 07:00-00:00; Sa 07:00-22:00", "shop": "supermarket", "source": "photography", "wheelchair": "limited"}}, {"type": "node", "id": 360860530, "lat": 50.9363551, "lon": 6.9556213, "tags": {"entrance": "main"}}, {"type": "node", "id": 362416613, "lat": 50.9479835, "lon": 6.92069, "tags": {"addr:city": "K\u00f6ln", "addr:housenumber": "287", "addr:postcode": "50823", "addr:street": "Venloer Stra\u00dfe", "brand": "Rewe City", "brand:wikidata": "Q16968817", "brand:wikipedia": "en:REWE", "name": "Rewe City", "opening_hours": "Mo-Sa 07:00-24:00; PH off", "shop": "supermarket", "wheelchair": "yes"}}, {"type": "node", "id": 362555331, "lat": 50.9355348, "lon": 6.9563009, "tags": {"name": "Supplement Shop", "shop": "nutrition_supplements", "wheelchair": "limited"}}, {"type": "node", "id": 362555341, "lat": 50.9357984, "lon": 6.9562595, "tags": {"note": "2019-10-25: Leerstand", "shop": "vacant"}}, {"type": "node", "id": 362583330, "lat": 50.9358883, "lon": 6.9597281, "tags": {"name": "B. Michaelis", "shop": "hairdresser", "website": "https://www.michaelis-friseur.de/", "wheelchair": "no"}}, {"type": "node", "id": 362583331, "lat": 50.9358955, "lon": 6.9598454, "tags": {"name": "H\u00f6rger\u00e4te Lorsbach", "shop": "hearing_aids", "website": "http://www.hoergeraete-lorsbach.de/index.php?option=com_content&view=article&id=87&Itemid=91"}}, {"type": "node", "id": 363706809, "lat": 50.9355661, "lon": 6.9596207, "tags": {"brand": "BackWerk", "brand:wikidata": "Q798298", "brand:wikipedia": "de:BackWerk", "name": "Backwerk", "opening_hours": "Mo-Sa 05:45-20:00, Su 08:00-14:00", "shop": "bakery"}}, {"type": "node", "id": 363706831, "lat": 50.9355909, "lon": 6.9597912, "tags": {"note": "2019-10-29: Umbau", "shop": "vacant"}}, {"type": "node", "id": 363708648, "lat": 50.9356198, "lon": 6.9601534, "tags": {"drink:club-mate": "yes", "shop": "kiosk"}}, {"type": "node", "id": 364096856, "lat": 51.0009292, "lon": 6.9875087, "tags": {"shop": "kiosk"}}, {"type": "node", "id": 365930480, "lat": 50.9354408, "lon": 6.960016, "tags": {"note": "2013-01-16: Leerstand", "shop": "vacant"}}, {"type": "node", "id": 366610514, "lat": 50.9610778, "lon": 6.9542497, "tags": {"name": "Cut & more", "shop": "hairdresser"}}, {"type": "node", "id": 366662574, "lat": 50.9766285, "lon": 6.9602214, "tags": {"name": "LIL'oh Kiosk", "shop": "kiosk"}}, {"type": "node", "id": 366662669, "lat": 50.9771754, "lon": 6.9603879, "tags": {"addr:city": "K\u00f6ln", "addr:housenumber": "1", "addr:postcode": "50735", "addr:street": "Weidenpescher Stra\u00dfe", "name": "B\u00e4ckerei Schmitz Nittenwilm", "shop": "bakery", "website": "https://schmitz-nittenwilm.de/", "wheelchair": "yes"}}, {"type": "node", "id": 366711156, "lat": 50.9870125, "lon": 6.9611247, "tags": {"name": "Alkadi", "name:ar": "\u0627\u0644\u0642\u0627\u0636\u064a", "shop": "supermarket"}}, {"type": "node", "id": 366725737, "lat": 50.9898186, "lon": 6.9613425, "tags": {"name": "Der kleine B\u00e4ckerladen", "shop": "bakery", "wheelchair": "yes"}}, {"type": "node", "id": 366953262, "lat": 50.9010824, "lon": 6.9441647, "tags": {"shop": "kiosk", "wheelchair": "limited"}}, {"type": "node", "id": 366958722, "lat": 50.9005285, "lon": 6.9509482, "tags": {"name": "Wolff's Bioback", "shop": "bakery", "wheelchair": "yes"}}, {"type": "node", "id": 366964662, "lat": 50.9055902, "lon": 6.9386718, "tags": {"addr:housenumber": "37", "addr:street": "Zollstockg\u00fcrtel", "brand": "Penny", "brand:wikidata": "Q284688", "brand:wikipedia": "en:Penny (supermarket)", "name": "Penny", "shop": "supermarket", "website": "https://www.penny.de/index.php?id=10097"}}, {"type": "node", "id": 366973341, "lat": 50.9101362, "lon": 6.9282299, "tags": {"addr:postcode": "50939", "addr:street": "Klettenbergg\u00fcrtel", "shop": "kiosk", "wheelchair": "yes"}}, {"type": "node", "id": 367621695, "lat": 50.9163351, "lon": 6.9262321, "tags": {"addr:city": "K\u00f6ln", "addr:country": "DE", "addr:housenumber": "48", "addr:street": "S\u00fclzburgstra\u00dfe", "name": "Klein's Backstube", "opening_hours": "Mo-Fr 06:00-18:30; Sa 06:00-18:00; Su 07:00-17:00", "shop": "bakery", "wheelchair": "limited"}}, {"type": "node", "id": 367630414, "lat": 50.9159823, "lon": 6.9267877, "tags": {"addr:city": "K\u00f6ln", "addr:country": "DE", "addr:housenumber": "38", "addr:postcode": "50937", "addr:street": "S\u00fclzburgstra\u00dfe", "name": "Werner's", "opening_hours": "Mo-Fr 08:00-19:00; Sa 08:00-16:00", "shop": "butcher", "wheelchair": "limited"}}, {"type": "node", "id": 367975251, "lat": 51.0036034, "lon": 7.042889, "tags": {"name": "Waldkiosk", "shop": "kiosk", "website": "http://www.waldkiosk.de", "wheelchair": "yes"}}, {"type": "node", "id": 367975272, "lat": 50.9973143, "lon": 7.0369786, "tags": {"addr:city": "K\u00f6ln", "addr:country": "DE", "addr:housenumber": "849", "addr:postcode": "51069", "addr:street": "Berliner Stra\u00dfe", "name": "Hannelores Haarstudio", "shop": "hairdresser", "wheelchair": "limited"}}, {"type": "node", "id": 367975282, "lat": 50.9970392, "lon": 7.0369269, "tags": {"addr:city": "K\u00f6ln", "addr:country": "DE", "addr:housenumber": "845", "addr:postcode": "51069", "addr:street": "Berliner Stra\u00dfe", "name": "Lesezeichen", "shop": "books", "wheelchair": "limited"}}, {"type": "node", "id": 367975287, "lat": 50.9969327, "lon": 7.0369034, "tags": {"addr:city": "K\u00f6ln", "addr:country": "DE", "addr:housenumber": "841", "addr:postcode": "51069", "addr:street": "Berliner Stra\u00dfe", "name": "Kiosk Dannenb\u00e4umer / Bondorf", "network": "VRS", "operator:VRS": "KVB", "shop": "kiosk", "shop:VRS": "ticket"}}, {"type": "node", "id": 367975296, "lat": 50.996803, "lon": 7.0368706, "tags": {"addr:city": "K\u00f6ln", "addr:country": "DE", "addr:housenumber": "839", "addr:postcode": "51069", "addr:street": "Berliner Stra\u00dfe", "name": "Geuer", "shop": "optician"}}, {"type": "node", "id": 367975300, "lat": 50.9965675, "lon": 7.0371909, "tags": {"name": "Bestatter Christoph Kuckelkorn", "shop": "funeral_directors", "wheelchair": "no"}}, {"type": "node", "id": 367975303, "lat": 50.9966701, "lon": 7.0368703, "tags": {"name": "Kik", "shop": "clothes", "wheelchair": "yes"}}, {"type": "node", "id": 368791984, "lat": 50.9403665, "lon": 6.9402422, "tags": {"note": "2017-02-06: Leerstand/Umbau", "shop": "vacant"}}, {"type": "node", "id": 369748924, "lat": 50.9611342, "lon": 7.0057293, "tags": {"brand": "Kamps", "brand:wikidata": "Q1723381", "brand:wikipedia": "de:Kamps (Unternehmen)", "name": "Kamps", "shop": "bakery", "wheelchair": "yes"}}, {"type": "node", "id": 370126110, "lat": 50.9487703, "lon": 7.0791465, "tags": {"shop": "kiosk"}}, {"type": "node", "id": 370557495, "lat": 50.9302662, "lon": 6.9571391, "tags": {"note": "2017-03-10: leerstand", "shop": "vacant"}}, {"type": "node", "id": 370573663, "lat": 50.9316763, "lon": 6.9591454, "tags": {"name": "Die Veedels B\u00e4ckerei", "shop": "bakery"}}, {"type": "node", "id": 370766644, "lat": 50.9361503, "lon": 6.9573603, "tags": {"name": "Unisex", "shop": "hairdresser", "source": "photography", "wheelchair": "limited"}}, {"type": "node", "id": 370766645, "lat": 50.9361506, "lon": 6.9572713, "tags": {"brand": "dm", "brand:wikidata": "Q266572", "brand:wikipedia": "en:Dm-drogerie markt", "name": "dm", "shop": "chemist", "source": "photography", "wheelchair": "yes"}}, {"type": "node", "id": 370837438, "lat": 50.9391473, "lon": 6.9518452, "tags": {"brand": "Ulla Popken", "brand:wikidata": "Q2475146", "brand:wikipedia": "en:Ulla Popken", "name": "Ulla Popken", "shop": "clothes", "source": "photography"}}, {"type": "node", "id": 370841038, "lat": 50.9391617, "lon": 6.9520651, "tags": {"name": "Two Stars' Ticketservice", "note": "Ist aber ein Lotto/Zigaretten/Zeitschriftenladen", "shop": "kiosk"}}, {"type": "node", "id": 370841044, "lat": 50.9391656, "lon": 6.9521514, "tags": {"name": "Merzenich", "shop": "bakery", "source": "photography"}},