{"version": 0.6, "generator": "Overpass API 0.7.56.7 b85c4387", "osm3s": {"timestamp_osm_base": "2020-12-30T21:12:02Z", "copyright": "The data included in this document is from www.openstreetmap.org. The data is made available under ODbL."}, "elements": [{"type": "node", "id": 98150559, "lat": 50.9623442, "lon": 6.9273853, "tags": {"amenity": "cafe", "cuisine": "ice_cream", "name": "Im Bl\u00fccherpark", "source": "survey", "wheelchair": "yes"}}, {"type": "node", "id": 104272811, "lat": 50.9563517, "lon": 6.9225004, "tags": {"amenity": "cafe", "internet_access": "wlan", "internet_access:fee": "no", "name": "Caf\u00e9 Franck", "opening_hours": "Mo off;Tu-Su 10:00-19:00", "opening_hours:covid19": "Mo off; Tu-Su 10:00-18:00", "outdoor_seating": "yes", "phone": "+49 221 7167210", "smoking": "no", "takeaway": "yes", "toilets:wheelchair": "no", "website": "https://www.cafe-franck.de/", "wheelchair": "yes", "wheelchair:description": "Toilette im Untergeschoss nur \u00fcber Wendeltreppe erreichbar."}}, {"type": "node", "id": 243365013, "lat": 50.9968837, "lon": 6.914581, "tags": {"amenity": "cafe", "name": "Heinemann", "opening_hours": "Mo 06:30-18:30; Tu-Fr 06:30-19:00; Sa 06:30-14:00; Su 07:00-12:00", "phone": "+49 221 5992976", "shop": "bakery", "source": "survey", "wheelchair": "yes"}}, {"type": "node", "id": 243917364, "lat": 50.9552745, "lon": 6.9321013, "tags": {"amenity": "cafe", "source": "survey", "wheelchair": "limited"}}, {"type": "node", "id": 243924626, "lat": 50.9542172, "lon": 6.9187246, "tags": {"amenity": "cafe", "name": "Nachtcaf\u00e9", "opening_hours": "Mo-Su 08:00-03:00"}}, {"type": "node", "id": 245798667, "lat": 50.9646588, "lon": 6.9130089, "tags": {"amenity": "cafe", "name": "Cappucino-Bar", "source": "survey"}}, {"type": "node", "id": 246781523, "lat": 50.9478037, "lon": 6.9226599, "tags": {"amenity": "cafe", "name": "secco", "source": "survey", "toilets:wheelchair": "no", "wheelchair": "no"}}, {"type": "node", "id": 247388978, "lat": 51.0254662, "lon": 6.9584898, "tags": {"amenity": "cafe", "created_by": "JOSM", "name": "Eiscafe Dolomiti", "source": "survey", "wheelchair": "limited"}}, {"type": "node", "id": 249228888, "lat": 50.9800706, "lon": 6.8681521, "tags": {"amenity": "cafe", "cuisine": "ice_cream", "name": "Eiscafe San Remo", "opening_hours": "Mo-Sa 09:00-20:30; Su 11:00-20:30", "outdoor_seating": "yes", "wheelchair": "yes"}}, {"type": "node", "id": 252043804, "lat": 50.9657668, "lon": 6.9533042, "tags": {"amenity": "cafe", "name": "Eiscafe Capri", "source": "survey", "wheelchair": "yes"}}, {"type": "node", "id": 256542313, "lat": 50.9644644, "lon": 6.9526336, "tags": {"addr:city": "K\u00f6ln", "addr:country": "DE", "addr:housenumber": "2", "addr:postcode": "50733", "addr:street": "Baudriplatz", "amenity": "cafe", "breakfast": "yes", "internet_access": "wlan", "internet_access:fee": "no", "lunch": "yes", "name": "Caf\u00e9 Eichh\u00f6rnchen", "opening_hours": "Mo-Su 09:00-20:00", "outdoor_seating": "yes", "wheelchair": "limited"}}, {"type": "node", "id": 265944260, "lat": 50.9079948, "lon": 6.9706467, "tags": {"amenity": "cafe", "name": "B\u00e4ckerei Schmitz&Nittenwilm", "wheelchair": "yes"}}, {"type": "node", "id": 279148032, "lat": 50.9600101, "lon": 6.996149, "tags": {"addr:city": "K\u00f6ln", "addr:country": "DE", "addr:postcode": "51063", "addr:street": "Deutz-M\u00fclheimer Stra\u00dfe", "amenity": "cafe"}}, {"type": "node", "id": 287567816, "lat": 50.9758103, "lon": 6.9501529, "tags": {"amenity": "cafe", "name": "Du Luca", "wheelchair": "no"}}, {"type": "node", "id": 293205365, "lat": 50.9189157, "lon": 6.9643137, "tags": {"alt_name": "R\u00f6merpark", "amenity": "cafe", "breakfast": "yes", "name": "R\u00f6merpark Cafehaus", "opening_hours": "Mo-Sa 09:00-20:00; Su 09:30-19:00", "outdoor_seating": "yes", "phone": "+49 221 386194", "website": "http://www.cafe-roemerpark.de/", "wheelchair": "limited"}}, {"type": "node", "id": 297870881, "lat": 50.9466272, "lon": 6.9240521, "tags": {"addr:postcode": "50823", "amenity": "cafe", "contact:phone": "+49 221 16959597", "contact:website": "https://edelgruen.bio", "cuisine": "breakfast;coffee_shop", "diet:vegan": "yes", "diet:vegetarian": "yes", "name": "Edelgr\u00fcn", "office": "estate_agent", "opening_hours": "Mo-Fr 08:00-22:00; Sa,Su 10:00-22:00", "operator": "Firat Erkan", "wheelchair": "yes"}}, {"type": "node", "id": 298079666, "lat": 50.9467421, "lon": 6.9225967, "tags": {"amenity": "cafe", "name": "San Marco", "source": "photography", "toilets:wheelchair": "no", "wheelchair": "yes"}}, {"type": "node", "id": 300467348, "lat": 50.9188476, "lon": 6.9566555, "tags": {"addr:city": "K\u00f6ln", "addr:housenumber": "61", "addr:postcode": "50677", "addr:street": "Rolandstra\u00dfe", "amenity": "cafe", "created_by": "Potlatch 0.10c", "name": "BI-PI\u00b4s Bistro", "operator": "Tr\u00e4gerwerk St. Georg e.V.", "sport": "go", "wheelchair": "no"}}, {"type": "node", "id": 305162046, "lat": 50.942977, "lon": 6.9556544, "tags": {"amenity": "cafe", "name": "IceBar", "opening_hours": "Tu-Sa 18:00+", "source": "photography", "wheelchair": "limited"}}, {"type": "node", "id": 306098540, "lat": 50.9432071, "lon": 6.9543539, "tags": {"amenity": "cafe", "name": "Dom Caf\u00e9"}}, {"type": "node", "id": 310405284, "lat": 50.9536055, "lon": 6.9238292, "tags": {"amenity": "cafe", "delivery": "no", "name": "Caf\u00e9 Soleil", "opening_hours": "Mo 10:00-18:00; We-Su 10:00-18:00", "outdoor_seating": "yes"}}, {"type": "node", "id": 310814716, "lat": 50.9228183, "lon": 6.9282321, "tags": {"amenity": "cafe", "name": "Snacks & Coffee", "opening_hours": "Mo-Fr 06:30-16:00", "wheelchair": "yes"}}, {"type": "node", "id": 314445664, "lat": 50.9306681, "lon": 6.9164984, "tags": {"addr:city": "K\u00f6ln", "addr:country": "DE", "addr:housenumber": "146", "addr:postcode": "50931", "addr:street": "D\u00fcrener Stra\u00dfe", "amenity": "cafe", "cuisine": "ice_cream", "name": "Eiscafe Azzurro", "wheelchair": "limited"}}, {"type": "node", "id": 316257606, "lat": 50.9632714, "lon": 7.0229678, "tags": {"amenity": "cafe", "name": "Zum Piccolo"}}, {"type": "node", "id": 317335296, "lat": 50.9310894, "lon": 6.9185933, "tags": {"addr:city": "K\u00f6ln", "addr:housenumber": "34", "addr:postcode": "50931", "addr:street": "Schallstra\u00dfe", "amenity": "cafe", "breakfast": "yes", "breakfast:buffet": "Su 10:00-14:00", "cuisine": "regional", "name": "Hinz und Kunz", "opening_hours": "Mo-Fr 08:00-20:00; Sa 10:00-20:00; Su 10:00-18:00", "outdoor_seating": "yes", "phone": "+49 221 16828763", "toilets:wheelchair": "no", "wheelchair": "yes", "wheelchair:description": "Toilette ebenerdig, aber sehr klein"}}, {"type": "node", "id": 320884926, "lat": 50.9813328, "lon": 7.033685, "tags": {"addr:street": "Im Weidenbruch", "amenity": "cafe", "name": "Bistro M\u00e9lange", "opening_hours": "Mo-Fr 10:00-23:00, Su 10:00-17:00", "toilets:wheelchair": "no", "wheelchair": "limited"}}, {"type": "node", "id": 320947628, "lat": 50.9384309, "lon": 7.0190359, "tags": {"amenity": "cafe", "name": "Esmeralda", "source": "photography"}}, {"type": "node", "id": 338655982, "lat": 50.950599, "lon": 6.9158103, "tags": {"amenity": "cafe", "name": "Damak", "source": "photography"}}, {"type": "node", "id": 343578714, "lat": 50.9630526, "lon": 7.0024827, "tags": {"addr:city": "K\u00f6ln", "addr:housenumber": "35-39", "addr:postcode": "51063", "addr:street": "Buchheimer Stra\u00dfe", "amenity": "cafe", "cuisine": "ice_cream", "name": "Eiscaf\u00e9 Venezia", "outdoor_seating": "yes", "wheelchair": "yes"}}, {"type": "node", "id": 343578724, "lat": 50.9630058, "lon": 7.0033125, "tags": {"addr:city": "K\u00f6ln", "addr:country": "DE", "addr:housenumber": "3", "addr:postcode": "51063", "addr:street": "Adamsstra\u00dfe", "amenity": "cafe", "name": "Am Wiener Platz", "note": "Hier wird viel geraucht - sogar der Kuchen schmeckt nach Rauch"}}, {"type": "node", "id": 343578791, "lat": 50.9721609, "lon": 7.0087399, "tags": {"addr:city": "K\u00f6ln", "addr:country": "DE", "addr:housenumber": "3", "addr:postcode": "51063", "addr:street": "Von-Sparr-Stra\u00dfe", "amenity": "cafe", "name": "Dostlar", "source": "survey"}}, {"type": "node", "id": 345758244, "lat": 50.9169583, "lon": 6.9239675, "tags": {"amenity": "cafe", "name": "Jules", "opening_hours": "Mo-Fr 09:00-18:00; Sa 10:00-18:00; Su 12:00-18:00; Mar Su[-1]-Oct Su[-1]-1 days: Mo-Fr 09:00-19:00", "website": "http://www.julescoffee.de/", "wheelchair": "limited"}}, {"type": "node", "id": 346155974, "lat": 50.9510709, "lon": 6.9173573, "tags": {"amenity": "cafe", "name": "Saray Caf\u00e9", "opening_hours": "Fr,Sa 10:00-03:00, Su-Th 10:00-01:00", "source": "photography"}}, {"type": "node", "id": 347539409, "lat": 50.9407511, "lon": 6.95618, "tags": {"amenity": "cafe", "name": "One Zo"}}, {"type": "node", "id": 347539412, "lat": 50.9410023, "lon": 6.9558685, "tags": {"amenity": "cafe", "capacity": "400", "contact:fax": "+49 221 2577492", "contact:phone": "+49 221 2578542", "food": "yes", "name": "Caf\u00e9 Reichard", "opening_hours": "Mo-Su 08:30-20:00", "outdoor_seating": "yes", "source": "photography", "start_date": "1855-11-09", "toilets:fee": "yes", "toilets:wheelchair": "yes", "website": "http://www.cafe-reichard.de/", "wheelchair": "limited"}}, {"type": "node", "id": 350488271, "lat": 50.9834553, "lon": 7.0219239, "tags": {"amenity": "cafe", "name": "Stehcaf\u00e9 Yilmaz", "shop": "kiosk"}}, {"type": "node", "id": 352976212, "lat": 50.9576324, "lon": 6.9190951, "tags": {"amenity": "cafe", "cuisine": "ice_cream", "name": "kookaburra Die Eis-V\u00f6gel", "source": "photography", "website": "https://www.facebook.com/kookaburraeis/", "wheelchair": "limited"}}, {"type": "node", "id": 357199403, "lat": 50.9239663, "lon": 6.9272701, "tags": {"addr:city": "K\u00f6ln", "addr:housenumber": "207", "addr:postcode": "50937", "addr:street": "Z\u00fclpicher Stra\u00dfe", "amenity": "cafe", "name": "Caf\u00e9 Kr\u00fcmel", "note": "Bitte Position (Stra\u00dfenecke) korrigieren, falls n\u00f6tig.", "opening_hours": "Mo-Fr 08:30-24:00; Su,PH 09:30-24:00", "wheelchair": "no"}}, {"type": "node", "id": 359862708, "lat": 50.936241, "lon": 6.9493731, "tags": {"amenity": "cafe", "brand": "Starbucks", "brand:wikidata": "Q37158", "brand:wikipedia": "en:Starbucks", "cuisine": "coffee_shop", "name": "Starbucks", "official_name": "Starbucks Coffee", "phone": "+49 221 25853234", "takeaway": "yes", "toilets:wheelchair": "no", "wheelchair": "yes"}}, {"type": "node", "id": 362514830, "lat": 50.9322118, "lon": 6.9566837, "tags": {"amenity": "cafe", "cuisine": "coffee_shop", "internet_access": "wlan", "name": "Waidmeister", "opening_hours": "08:00-18:00", "wheelchair": "limited"}}, {"type": "node", "id": 363744354, "lat": 50.9359101, "lon": 6.9600982, "tags": {"amenity": "cafe", "name": "Small's & Tall's", "wheelchair": "limited"}}, {"type": "node", "id": 366625495, "lat": 50.9667918, "lon": 6.9585539, "tags": {"addr:city": "K\u00f6ln", "addr:housenumber": "147", "addr:postcode": "50733", "addr:street": "Niehler Stra\u00dfe", "amenity": "cafe", "delivery": "no", "name": "Goldengel", "opening_hours": "Mo-Fr 09:00-22:00; Sa-Su 10:00-22:00, Tu off", "outdoor_seating": "yes", "phone": "+49 177 5028034", "website": "http://www.goldengel-cologne.de", "wheelchair": "limited"}}, {"type": "node", "id": 366680898, "lat": 50.979478, "lon": 6.9648037, "tags": {"amenity": "cafe", "name": "Orient-Teestube"}}, {"type": "node", "id": 366722675, "lat": 50.9891588, "lon": 6.9614016, "tags": {"amenity": "cafe", "name": "Ital. Eiscafe Picolo", "wheelchair": "no"}}, {"type": "node", "id": 366725738, "lat": 50.9899165, "lon": 6.9613747, "tags": {"amenity": "cafe", "name": "Konditorei - Cafe U. Rong"}}, {"type": "node", "id": 371085749, "lat": 50.9392084, "lon": 6.9554144, "tags": {"addr:housenumber": "2", "addr:postcode": "50667", "addr:street": "Minoritenstra\u00dfe", "amenity": "cafe", "name": "C\u00f6lner Cafehaus", "opening_hours": "Mo-Sa 08:00-19:00; Su 10:00-18:00", "phone": "+49 221 277 46 31", "source": "photography", "wheelchair": "limited"}}, {"type": "node", "id": 387293276, "lat": 50.9415689, "lon": 6.9513876, "tags": {"amenity": "cafe", "name": "Henry\u2019s Caf\u00e9 & Bar", "phone": "+49 221 160 940", "website": "https://www.domhotel-koeln.de/de/henrys-cafe-und-bar.html"}}, {"type": "node", "id": 394948609, "lat": 50.9344604, "lon": 6.9379452, "tags": {"amenity": "cafe", "name": "Cafe Fleur", "opening_hours": "Mo-Fr 08:00-21:00, 09:00-18:00; Sa 09:00-21:00, 09:00-18:00", "toilets:wheelchair": "no", "wheelchair": "yes"}}, {"type": "node", "id": 410124702, "lat": 50.9481299, "lon": 6.9210594, "tags": {"amenity": "cafe", "name": "Simit Sarayi", "opening_hours:signed": "no", "outdoor_seating": "yes", "wheelchair": "yes"}}, {"type": "node", "id": 412645535, "lat": 50.9407448, "lon": 6.9404587, "tags": {"addr:city": "K\u00f6ln", "addr:country": "DE", "addr:housenumber": "72", "addr:postcode": "50672", "addr:street": "Hohenzollernring", "amenity": "cafe", "brand": "Starbucks", "brand:wikidata": "Q37158", "brand:wikipedia": "en:Starbucks", "cuisine": "coffee_shop", "name": "Starbucks", "official_name": "Starbucks Coffee", "outdoor_seating": "yes", "takeaway": "yes", "toilets:wheelchair": "no", "wheelchair": "limited"}}, {"type": "node", "id": 413152029, "lat": 50.9363645, "lon": 6.9504006, "tags": {"amenity": "cafe", "name": "Riese", "outdoor_seating": "yes", "source": "photography", "wheelchair": "yes"}}, {"type": "node", "id": 427087678, "lat": 50.9373536, "lon": 6.9625359, "tags": {"addr:housenumber": "13", "addr:postcode": "50667", "addr:street": "Frankenwerft", "amenity": "cafe", "name": "Enteresan", "name:de": "Enteresan", "opening_hours": "Mo-Su 11:00-22:00", "phone": "+49 221 9910172", "website": "http://www.pizzeria-enteresan.de", "wheelchair": "limited"}}, {"type": "node", "id": 428481971, "lat": 50.9549672, "lon": 6.9174913, "tags": {"amenity": "cafe", "email": "info@speisemeister.net", "name": "Speisemeister", "opening_hours": "Mo-Fr 12:00-18:00; Sa, Su, PH off", "phone": "+49 221 2507762", "source": "photography", "website": "https://speisemeister.net/"}}, {"type": "node", "id": 428481975, "lat": 50.9551321, "lon": 6.9170426, "tags": {"addr:city": "K\u00f6ln", "addr:housenumber": "18", "addr:postcode": "50825", "addr:street": "Simarplatz", "amenity": "cafe", "capacity": "50", "cuisine": "ice_cream", "name": "Eiscaf\u00e9 Liliana", "opening_hours": "Mo-Sa 10:00-22:30; Su 11:00-22:00", "outdoor_seating": "yes", "source": "photography", "website": "http://www.qype.com/place/787292-Eiscafe-Liliana-Koeln", "wheelchair": "no"}}, {"type": "node", "id": 428574355, "lat": 50.9527336, "lon": 6.9226822, "tags": {"amenity": "cafe", "name": "Fr\u00e4ulein Frida", "source": "photography", "wheelchair": "limited"}}, {"type": "node", "id": 434483598, "lat": 50.9057832, "lon": 6.9587044, "tags": {"addr:housenumber": "95a", "addr:street": "Br\u00fchler Stra\u00dfe", "amenity": "cafe", "cuisine": "ice_cream", "name": "Eiscafe Da Vinci", "outdoor_seating": "yes", "smoking": "yes", "toilets:wheelchair": "no", "wheelchair": "yes"}}, {"type": "node", "id": 435575965, "lat": 50.9306987, "lon": 6.9413063, "tags": {"addr:city": "K\u00f6ln", "addr:country": "DE", "addr:housenumber": "22", "addr:postcode": "50674", "addr:street": "Hohenstaufenring", "amenity": "cafe", "cuisine": "ice_cream", "name": "Eiscafe Cortina", "opening_hours": "Mo-Su 09:00-23:00", "outdoor_seating": "yes", "smoking": "outside", "toilets:wheelchair": "no", "wheelchair": "limited"}}, {"type": "node", "id": 438042767, "lat": 50.9487291, "lon": 6.9196569, "tags": {"amenity": "cafe", "name": "Simitland", "source": "photography"}}, {"type": "node", "id": 442572661, "lat": 50.940068, "lon": 6.956888, "tags": {"amenity": "cafe", "cuisine": "ice_cream", "name": "Gelateria 4D", "outdoor_seating": "yes", "source": "photography", "wheelchair": "no"}}, {"type": "node", "id": 442702962, "lat": 50.9258586, "lon": 6.9580911, "tags": {"addr:city": "K\u00f6ln", "addr:country": "DE", "addr:housenumber": "89", "addr:street": "Severinstra\u00dfe", "amenity": "cafe", "breakfast": "Mo-Sa 09:00-18:00", "description": "Ganzt\u00e4gig Fr\u00fchst\u00fcck und kostenlos w-lan", "internet_access": "wlan", "name": "cafeschulze", "opening_hours": "Mo-Sa 09:00-18:00", "outdoor_seating": "yes", "phone": "+49 221 9320956", "takeaway": "coffee", "website": "https://www.cafeschulze.de/"}}, {"type": "node", "id": 444111732, "lat": 50.9387561, "lon": 6.9455825, "tags": {"addr:city": "K\u00f6ln", "addr:housenumber": "126", "addr:postcode": "50667", "addr:street": "Breite Stra\u00dfe", "amenity": "cafe", "automatic_door": "yes", "cuisine": "cake;coffee_shop;regional", "name": "Caf\u00e9 Fromme", "opening_hours": "Mo-Fr 08:30-19:00; Sa 08:30-18:30; Su 10:30-18:00", "outdoor_seating": "yes", "source": "survey;local knowledge", "toilets": "customers", "toilets:wheelchair": "no", "website": "http://www.FeineTorten.com/"}}, {"type": "node", "id": 444316932, "lat": 50.9389501, "lon": 6.9489803, "tags": {"amenity": "cafe", "name": "Woyton", "toilets:wheelchair": "no", "wheelchair": "limited"}}, {"type": "node", "id": 444401493, "lat": 50.9568351, "lon": 6.9190039, "tags": {"amenity": "cafe", "name": "Expresso Point", "opening_hours": "Mo-Fr 07:00-18:00; Sa 08:00-18:00; Su 10:00-18:00", "outdoor_seating": "yes", "source": "photography", "wheelchair": "no"}}, {"type": "node", "id": 444782789, "lat": 50.9369662, "lon": 6.9441465, "tags": {"addr:city": "K\u00f6ln", "addr:country": "DE", "addr:housenumber": "12-14", "addr:postcode": "50672", "addr:street": "Mittelstra\u00dfe", "amenity": "cafe", "name": "Fassbender", "opening_hours": "Mo-Th 09:00-19:00; Fr 08:00-19:00; Sa 09:00-19:00; Su 10:00-18:00", "website": "http://www.fassbender.de/", "wheelchair": "limited"}}, {"type": "node", "id": 444782802, "lat": 50.9361185, "lon": 6.944677, "tags": {"amenity": "cafe", "name": "Riphahn", "phone": "+49 221 99874577", "website": "http://www.riphahn.com/", "wheelchair": "yes"}}, {"type": "node", "id": 444782813, "lat": 50.9365628, "lon": 6.9469791, "tags": {"amenity": "cafe", "name": "Fromme", "wheelchair": "yes"}}, {"type": "node", "id": 446042776, "lat": 50.9593957, "lon": 6.9063253, "tags": {"amenity": "cafe", "name": "InCorleone Lounge K\u00f6ln"}}, {"type": "node", "id": 446769225, "lat": 50.9453658, "lon": 6.9557537, "tags": {"amenity": "cafe", "name": "Tuga", "source": "photography"}}, {"type": "node", "id": 448400559, "lat": 50.9381095, "lon": 6.9421367, "tags": {"amenity": "cafe", "email": "info@cafe-de-paris.de", "name": "Caf\u00e9 de Paris", "outdoor_seating": "yes", "phone": "+49 221 277 947 50", "toilets:wheelchair": "no", "website": "http://cafe-de-paris.de/", "wheelchair": "limited"}}, {"type": "node", "id": 448400578, "lat": 50.9376473, "lon": 6.940613, "tags": {"amenity": "cafe", "email": "info@cafe-era.de", "name": "era", "opening_hours": "Mo-Th 10:00-01:00, Fr-Sa 10:00-02:00, Su 11:00-24:00", "phone": "+49 221 16934430", "website": "http://www.cafeera.de/", "wheelchair": "limited"}}, {"type": "node", "id": 449237770, "lat": 50.8743908, "lon": 7.0507128, "tags": {"addr:city": "K\u00f6ln", "addr:housenumber": "266", "addr:postcode": "51143", "addr:street": "Hauptstra\u00dfe", "amenity": "cafe", "changing_table": "yes", "drink:coffee": "yes", "name": "Gilgen's", "opening_hours": "Mo-Fr 07:00-18:30; Sa 07:00-18:00; So 07:00-18:00", "payment:cash": "yes", "shop": "bakery", "toilets:wheelchair": "yes", "wheelchair": "yes"}}, {"type": "node", "id": 452448619, "lat": 50.952102, "lon": 6.9140514, "tags": {"amenity": "cafe", "internet_access": "yes", "note": "2009-07-30: Leerstand", "shop": "construction", "source": "photography"}}, {"type": "node", "id": 452495638, "lat": 50.9555239, "lon": 6.9160085, "tags": {"amenity": "cafe", "internet_access": "yes", "name": "O'Cavallucio", "source": "photography"}}, {"type": "node", "id": 452736516, "lat": 50.9258395, "lon": 6.9664221, "tags": {"addr:city": "K\u00f6ln", "addr:country": "DE", "addr:housenumber": "24", "addr:postcode": "50678", "addr:street": "Im Zollhafen", "amenity": "cafe", "cuisine": "international;regional;italian", "description": "In einem der modernsten Viertel in K\u00f6ln befindet sich das Leone im Rheinauhafen. Von fr\u00fch bis sp\u00e4t k\u00f6nnen Sie hier zwischen Schokoladenmuseum und moderner Architektur einen entspannten Caf\u00e9 oder ein Glas Wein trinken und sich mit wechselnden Gerichten aus", "email": "kontakt@leone-koeln.de", "internet_access": "wlan", "internet_access:fee": "no", "internet_access:ssid": "Leone im Rheinauhafen", "level": "0", "name": "Leone im Rheinauhafen CafeBar & Ristorantino", "opening_hours": "Mo-Su 09:00-20:00", "outdoor_seating": "yes", "payment:cash": "yes", "payment:girocard": "yes", "phone": "+49-221-94640989", "smoking": "no", "website": "http://www.leone-koeln.de", "wheelchair": "yes"}}, {"type": "node", "id": 455021457, "lat": 50.9471359, "lon": 6.8866003, "tags": {"amenity": "cafe", "name": "Kraus", "old_name": "Klein", "shop": "bakery", "toilets:wheelchair": "no", "wheelchair": "yes"}}, {"type": "node", "id": 456372580, "lat": 50.9275692, "lon": 6.9456649, "tags": {"addr:city": "K\u00f6ln", "addr:country": "DE", "addr:housenumber": "39", "addr:street": "Am Weidenbach", "amenity": "cafe", "name": "Adria", "wheelchair": "limited"}}, {"type": "node", "id": 458599339, "lat": 50.9397091, "lon": 6.9583116, "tags": {"amenity": "cafe", "name": "Raffaello", "source": "sightwalk.de", "wheelchair": "no"}}, {"type": "node", "id": 458790816, "lat": 50.9475565, "lon": 6.9224516, "tags": {"amenity": "cafe", "breakfast": "yes", "cuisine": "italian", "food": "yes", "name": "Jaely's", "opening_hours": "Mo-Fr 08:00-23:00; Sa-Su 09:00-23:00", "outdoor_seating": "yes", "payment:credit_cards": "no", "payment:debit_cards": "no", "phone": "+49 221 99878415", "source": "survey", "toilets:wheelchair": "yes", "wheelchair": "limited"}}, {"type": "node", "id": 458790829, "lat": 50.9458872, "lon": 6.9258528, "tags": {"addr:city": "K\u00f6ln", "addr:country": "DE", "addr:housenumber": "199", "addr:postcode": "50823", "addr:street": "Venloer Stra\u00dfe", "amenity": "cafe", "name": "Perisa Cafe", "source": "survey", "website": "https://perisacafe.business.site/", "wheelchair": "yes"}}, {"type": "node", "id": 460691110, "lat": 50.9556619, "lon": 6.9322438, "tags": {"amenity": "cafe", "name": "Eiscafe Caruso"}}, {"type": "node", "id": 467766433, "lat": 50.9385342, "lon": 6.9454572, "tags": {"amenity": "cafe", "cuisine": "ice_cream", "name": "Dulce", "opening_hours": "Mo-Su 10:00-20:00", "outdoor_seating": "yes"}}, {"type": "node", "id": 469472289, "lat": 50.9874137, "lon": 6.992442, "tags": {"amenity": "cafe", "name": "Caf\u00e9 Lichtblick", "opening_hours": "Tu-Sa 09:30-13:00, 15:00-18:00; Su 15:00-18:00", "wheelchair": "yes", "wheelchair:description": "WC vorhanden"}}, {"type": "node", "id": 469472316, "lat": 50.9867582, "lon": 6.9910952, "tags": {"addr:city": "K\u00f6ln", "addr:housenumber": "21", "addr:postcode": "51061", "addr:street": "Bonhoefferstra\u00dfe", "amenity": "cafe", "name": "Italienisches Eiscaf\u00e9", "opening_hours": "Mo, We-Sa 10:00-21:00; Tu 15:00-21:00; Su 11:00-21:00", "wheelchair": "yes", "wheelchair:description": "kein WC"}}, {"type": "node", "id": 473174810, "lat": 50.9331382, "lon": 7.044289, "tags": {"amenity": "cafe", "name": "Bingo Lounge"}}, {"type": "node", "id": 478759263, "lat": 50.93972, "lon": 6.9596186, "tags": {"addr:postcode": "50667", "amenity": "cafe", "name": "juicy dreams", "source": "photography"}}, {"type": "node", "id": 485107025, "lat": 50.9370331, "lon": 6.9497941, "tags": {"amenity": "cafe", "cuisine": "ice_cream", "name": "Marco Polo"}}, {"type": "node", "id": 517231322, "lat": 50.9499457, "lon": 6.9233154, "tags": {"addr:city": "K\u00f6ln", "addr:housenumber": "67", "addr:postcode": "50823", "addr:street": "K\u00f6rnerstra\u00dfe", "amenity": "cafe", "brewery": "Fr\u00fch-K\u00f6lsch;Paulaner", "name": "Caf\u00e9 Sehnsucht", "opening_hours": "Mo-Fr 08:30-01:00, Sa-Su 09:00-01:00", "phone": "+49221528347", "source": "photography, survey", "toilets:wheelchair": "no", "website": "https://www.sehnsucht-koeln.de/", "wheelchair": "limited"}}, {"type": "node", "id": 532018508, "lat": 50.9324893, "lon": 6.9394648, "tags": {"addr:city": "K\u00f6ln", "addr:housenumber": "1", "addr:postcode": "50674", "addr:street": "Beethovenstra\u00dfe", "amenity": "cafe", "name": "Regenbogencaf\u00e9 der Aidshilfe K\u00f6ln e. V", "phone": "+49 221 202030", "toilets:wheelchair": "yes", "website": "http://www.aidshilfe-koeln.de/", "wheelchair": "yes"}}, {"type": "node", "id": 538209656, "lat": 50.9198126, "lon": 6.960507, "tags": {"addr:city": "K\u00f6ln", "addr:country": "DE", "addr:housenumber": "2a", "addr:postcode": "50678", "addr:street": "Kurf\u00fcrstenstra\u00dfe", "amenity": "cafe", "name": "Zikade", "opening_hours": "Mo-Fr 08:30-20:00, Sa 08:30-19:00", "wheelchair": "limited"}}, {"type": "node", "id": 538242620, "lat": 50.9215632, "lon": 6.9574334, "tags": {"addr:city": "K\u00f6ln", "addr:country": "DE", "addr:housenumber": "21", "addr:street": "Karolingerring", "amenity": "cafe", "breakfast": "yes", "cuisine": "coffee_shop", "name": "Leuchte", "opening_hours": "Mo-Su 08:30-19:00", "website": "http://www.leuchtekoeln.de/", "wheelchair": "limited"}}, {"type": "node", "id": 538273571, "lat": 50.9194486, "lon": 6.9595554, "tags": {"amenity": "cafe", "name": "Formula Uno", "wheelchair": "limited"}}, {"type": "node", "id": 538507603, "lat": 50.9636693, "lon": 6.9788284}, {"type": "node", "id": 538507606, "lat": 50.9636563, "lon": 6.9789316}, {"type": "node", "id": 538507607, "lat": 50.9635908, "lon": 6.9789108}, {"type": "node", "id": 538507610, "lat": 50.9636038, "lon": 6.9788076}, {"type": "node", "id": 566143095, "lat": 50.9385859, "lon": 6.94999, "tags": {"amenity": "cafe", "name": "Printen Schmitz", "source": "photography", "wheelchair": "yes"}}, {"type": "node", "id": 566149013, "lat": 50.9389346, "lon": 6.9512385, "tags": {"amenity": "cafe", "name": "epi", "toilets:wheelchair": "yes", "wheelchair": "yes"}}, {"type": "node", "id": 567404736, "lat": 50.9232982, "lon": 6.9269891, "tags": {"addr:housenumber": "3f", "addr:street": "Palanterstra\u00dfe", "amenity": "cafe", "breakfast": "yes", "cuisine": "italian", "name": "Al Baretto", "opening_hours": "Tu-Fr 09:00-20:00; Sa -18:00; Su 11:00-20:00", "wheelchair": "no"}}, {"type": "node", "id": 570692365, "lat": 50.9366131, "lon": 6.9362424, "tags": {"amenity": "cafe", "name": "Salon Schmitz", "outdoor_seating": "yes", "wheelchair": "limited"}}, {"type": "node", "id": 570693110, "lat": 50.936621, "lon": 6.9364425, "tags": {"addr:city": "K\u00f6ln", "addr:country": "DE", "addr:housenumber": "24-26", "addr:street": "Aachener Stra\u00dfe", "amenity": "cafe", "name": "Caf\u00e9 Bauturm", "phone": "+49221528984", "toilets:wheelchair": "no", "wheelchair": "limited"}}, {"type": "node", "id": 570693673, "lat": 50.9366176, "lon": 6.936579, "tags": {"addr:city": "K\u00f6ln", "addr:country": "DE", "addr:housenumber": "22", "addr:postcode": "50674", "addr:street": "Aachener Stra\u00dfe", "amenity": "cafe", "name": "Die R\u00f6sterei", "phone": "+492215894179", "wheelchair": "no"}}, {"type": "node", "id": 570694021, "lat": 50.9363707, "lon": 6.9360529, "tags": {"addr:housenumber": "17", "addr:postcode": "50674", "addr:street": "Aachener Stra\u00dfe", "amenity": "cafe", "name": "Caf\u00e9 Storch", "phone": "+49221 251717", "wheelchair": "limited"}}, {"type": "node", "id": 570779447, "lat": 50.9213605, "lon": 6.9621273, "tags": {"addr:city": "K\u00f6ln", "addr:country": "DE", "addr:housenumber": "24", "addr:street": "Ubierring", "amenity": "cafe", "name": "Eiscaf\u00e9 Forum"}}, {"type": "node", "id": 577250358, "lat": 50.9368423, "lon": 6.9567808, "tags": {"amenity": "cafe", "name": "Woyton", "source": "photography", "wheelchair": "limited"}}, {"type": "node", "id": 581886748, "lat": 50.9382101, "lon": 6.9389326, "tags": {"addr:city": "K\u00f6ln", "addr:country": "DE", "addr:housenumber": "29", "addr:postcode": "50672", "addr:street": "Hohenzollernring", "amenity": "cafe", "name": "Brownies", "outdoor_seating": "yes", "phone": "+4922125085174", "toilets:wheelchair": "no", "website": "http://www.brownies-coffee.de", "wheelchair": "limited"}}, {"type": "node", "id": 581936182, "lat": 50.9378183, "lon": 6.9455585, "tags": {"amenity": "cafe", "name": "Hernando Cortez", "opening_hours": "Jan-Apr Mo-Sa 10:00-20:00; May-Aug Mo-Sa 10:00-19:00; Sep-Dec Mo-Sa 10:00-20:00; Su,PH off", "phone": "+49 221 27250570", "website": "http://www.hernando-cortez.de/"}}, {"type": "node", "id": 591429156, "lat": 50.8777318, "lon": 7.1232504, "tags": {"amenity": "cafe", "level": "1", "name": "Cafeterio"}}, {"type": "node", "id": 591429420, "lat": 50.8783443, "lon": 7.1233703, "tags": {"amenity": "cafe", "level": "1", "name": "Caf\u00e9 Bistro Leysieffer", "name:it": "Leysieffer", "operator": "Leysieffer", "wheelchair": "yes"}}, {"type": "node", "id": 596154904, "lat": 51.0013017, "lon": 6.9798732, "tags": {"amenity": "cafe", "name": "Eiscafe", "wheelchair": "limited"}}, {"type": "node", "id": 600020298, "lat": 50.9131025, "lon": 6.9295103, "tags": {"addr:city": "K\u00f6ln", "addr:housenumber": "28", "addr:postcode": "50939", "addr:street": "Hirschbergstra\u00dfe", "amenity": "cafe", "name": "Cafe Rosemarie", "opening_hours": "Tu-Su 10:00-18:30; Th 10:00-23:00", "website": "http://www.cafe-rosemarie.de/", "wheelchair": "limited"}}, {"type": "node", "id": 613450177, "lat": 50.9377262, "lon": 6.9558755, "tags": {"addr:city": "K\u00f6ln", "addr:housenumber": "1-3", "addr:postcode": "50667", "addr:street": "Br\u00fcckenstra\u00dfe", "amenity": "cafe", "name": "Eigel", "opening_hours": "Mo-Fr 09:00-19:00, Sa 09:00-18:00, Su 14:00-18:00", "payment:cash": "yes", "payment:credit_card": "yes", "phone": "+49 221 2575858", "source": "photography;local knowledge", "toilets:wheelchair": "no", "wheelchair": "yes"}}, {"type": "node", "id": 614215778, "lat": 50.937133, "lon": 6.96116, "tags": {"addr:postcode": "50667", "amenity": "cafe", "name": "Eiscafe Stella D'oro", "outdoor_seating": "yes", "smoking": "isolated"}}, {"type": "node", "id": 614234065, "lat": 50.9373626, "lon": 6.9586648, "tags": {"addr:city": "K\u00f6ln", "addr:country": "DE", "addr:housenumber": "39", "addr:postcode": "50667", "addr:street": "Martinstra\u00dfe", "amenity": "cafe", "name": "Wallraf-Richartz-Cafe", "source": "http://www.wallraf-richartz-cafe.de/", "website": "http://www.wallraf-richartz-cafe.de/", "wheelchair": "no"}}, {"type": "node", "id": 614237718, "lat": 50.9377721, "lon": 6.9568774, "tags": {"amenity": "cafe", "name": "Fassbender (ehemalig Jansen)", "toilets:wheelchair": "no", "wheelchair": "limited"}}, {"type": "node", "id": 617197874, "lat": 50.935628, "lon": 6.9544675, "tags": {"amenity": "cafe", "name": "Antik und Tr\u00f6delcafe", "note": "Mokambo ist eine Kaffeemarke.", "opening_hours": "Mo-Sa 10:00-19:00; Su 14:00-18:00; PH off", "outdoor_seating": "limited"}}, {"type": "node", "id": 617816503, "lat": 50.9388164, "lon": 6.9499979, "tags": {"amenity": "cafe", "name": "Printen Schmitz", "source": "photography", "wheelchair": "yes"}}, {"type": "node", "id": 619183273, "lat": 51.0651767, "lon": 6.8655268, "tags": {"amenity": "cafe", "name": "Eiscafe Piras Grote di Netuno", "wheelchair": "limited"}}, {"type": "node", "id": 619389907, "lat": 50.9388756, "lon": 6.9539929, "tags": {"amenity": "cafe", "name": "Espresso Perfetto", "website": "https://www.espressoperfetto.com/Article.aspx?ArticleID=7"}}, {"type": "node", "id": 623520104, "lat": 50.9281081, "lon": 6.9344726, "tags": {"addr:city": "K\u00f6ln", "addr:country": "DE", "addr:housenumber": "8", "addr:postcode": "50674", "addr:street": "Z\u00fclpicher Wall", "amenity": "cafe", "name": "Cafe Duddel", "opening_hours": "Mo-Fr 10:00-23:00; Sa 14:00-23:00; Su 14:00-20:00", "toilets:wheelchair": "no", "wheelchair": "limited"}}, {"type": "node", "id": 633181813, "lat": 50.9382021, "lon": 6.9604435, "tags": {"addr:postcode": "50667", "amenity": "cafe", "name": "t\u00e4glich", "source": "photography", "wheelchair": "no"}}, {"type": "node", "id": 633181821, "lat": 50.938316, "lon": 6.960433, "tags": {"addr:city": "K\u00f6ln", "addr:housenumber": "28-32", "addr:postcode": "50667", "addr:street": "Alter Markt", "amenity": "cafe", "brand:wikidata": "Q1025505", "cuisine": "breakfast;international", "email": "koeln@cafe-extrablatt.de", "fax": "+49 221 2572108", "name": "Cafe Extrablatt", "opening_hours": "Mo-Sa 08:00-24:00, Su,PH 09:00-02:00", "operator": "Cafe Extrablatt Alter Markt GmbH", "outdoor_seating": "yes", "phone": "+49 221 2572107", "source": "photography", "toilets:wheelchair": "no", "website": "https://cafe-extrablatt.de/standorte/details/cafe-extrablatt-koeln-alter-markt", "wheelchair": "limited"}}, {"type": "node", "id": 633181834, "lat": 50.9386286, "lon": 6.9603805, "tags": {"addr:postcode": "50667", "amenity": "cafe", "cuisine": "ice_cream", "name": "Marco Polo", "wheelchair": "limited"}}, {"type": "node", "id": 633181872, "lat": 50.9390972, "lon": 6.9603208, "tags": {"addr:postcode": "50667", "addr:street": "Alter Markt", "amenity": "cafe", "name": "Kaffebud", "opening_hours": "Mo-Su,PH 06:00-15:00", "wheelchair": "limited"}}, {"type": "node", "id": 633181879, "lat": 50.9389612, "lon": 6.9603087, "tags": {"amenity": "cafe", "name": "Oma Jan\u00dfen"}}, {"type": "node", "id": 634987652, "lat": 50.9369892, "lon": 6.9627577, "tags": {"addr:city": "K\u00f6ln", "addr:country": "DE", "addr:housenumber": "3", "addr:postcode": "50667", "addr:street": "Frankenwerft", "amenity": "cafe", "contact:phone": "+49 221 2581342", "cuisine": "ice_cream", "name": "Ital. Eiscaf\u00e9 Am Pegel", "operator": "N. Russo", "outdoor_seating": "yes"}}, {"type": "node", "id": 635830169, "lat": 50.934818, "lon": 6.9559636, "tags": {"addr:street": "Hohe Stra\u00dfe", "amenity": "cafe", "name": "Klein's Backstube", "source": "photography;local knowledge", "website": "https://kleinsbackstube.de/"}}, {"type": "node", "id": 635884679, "lat": 50.936383, "lon": 6.9576418, "tags": {"amenity": "cafe", "brand": "Starbucks", "brand:wikidata": "Q37158", "brand:wikipedia": "en:Starbucks", "cuisine": "coffee_shop", "internet_access": "wlan", "internet_access:fee": "no", "internet_access:ssid": "MEET ME @ STARBUCKS", "name": "Starbucks", "official_name": "Starbucks Coffee", "outdoor_seating": "no", "takeaway": "yes"}}, {"type": "node", "id": 635897065, "lat": 50.9371072, "lon": 6.9574359, "tags": {"amenity": "cafe", "cuisine": "ice_cream", "name": "Eiscafe Toto", "outdoor_seating": "yes", "source": "photography"}}, {"type": "node", "id": 648263118, "lat": 50.9393431, "lon": 6.9476297, "tags": {"amenity": "cafe", "name": "Bastians", "opening_hours": "Mo-Su, PH 08:00-19:00", "phone": "+4922125083412", "toilets:wheelchair": "yes", "website": "https://www.bastians-baecker.de", "wheelchair": "limited"}}, {"type": "node", "id": 659034167, "lat": 50.9245869, "lon": 6.9587253, "tags": {"addr:city": "K\u00f6ln", "addr:country": "DE", "addr:housenumber": "54a", "addr:postcode": "50678", "addr:street": "Severinstra\u00dfe", "amenity": "cafe", "cuisine": "breakfast;cake;coffee", "email": "kontakt@loewencafe.koeln", "level": "0", "name": "L\u00f6wen Caf\u00e9", "opening_hours": "Mo-Tu 09:00-19:00,Fr-Sa 09:00-20:00,Su 10:00-19:00", "phone": "+49 221 27183113", "website": "https://loewenkaffee.de/loewenkaffee-cafe", "wheelchair": "yes"}}, {"type": "node", "id": 659351185, "lat": 50.9522057, "lon": 6.9129635, "tags": {"addr:city": "K\u00f6ln", "addr:housenumber": "425", "addr:postcode": "50825", "addr:street": "Venloer Stra\u00dfe", "amenity": "cafe", "diet:vegetarian": "yes", "internet_access": "wlan", "name": "Fridolin", "opening_hours": "Tu-Su 10:00-20:00", "phone": "+49 221 99381809", "takeaway": "yes", "toilets:wheelchair": "no", "wheelchair": "yes"}}, {"type": "node", "id": 659589753, "lat": 50.9437714, "lon": 6.9331788, "tags": {"amenity": "cafe", "name": "Maria Eetcaf\u00e9", "outdoor_seating": "yes", "toilets:wheelchair": "no", "website": "http://www.maria-koeln.de/", "wheelchair": "no"}}, {"type": "node", "id": 660899120, "lat": 50.9479257, "lon": 6.9750237}, {"type": "node", "id": 660899121, "lat": 50.947902, "lon": 6.9750132}, {"type": "node", "id": 660899122, "lat": 50.9478717, "lon": 6.9750593}, {"type": "node", "id": 660899123, "lat": 50.9478543, "lon": 6.9751095}, {"type": "node", "id": 660899124, "lat": 50.9478403, "lon": 6.9751655}, {"type": "node", "id": 660899125, "lat": 50.9478416, "lon": 6.9753246}, {"type": "node", "id": 660899126, "lat": 50.9478787, "lon": 6.9753941}, {"type": "node", "id": 660899127, "lat": 50.9479169, "lon": 6.9754354}, {"type": "node", "id": 660899128, "lat": 50.9479571, "lon": 6.975438}, {"type": "node", "id": 660899129, "lat": 50.9480128, "lon": 6.9754218}, {"type": "node", "id": 660899130, "lat": 50.9480609, "lon": 6.9753731}, {"type": "node", "id": 660899131, "lat": 50.948105, "lon": 6.9752254}, {"type": "node", "id": 660899132, "lat": 50.9483652, "lon": 6.9751315}, {"type": "node", "id": 660899133, "lat": 50.9485124, "lon": 6.9752215}, {"type": "node", "id": 660899134, "lat": 50.9485551, "lon": 6.9750443}, {"type": "node", "id": 660899135, "lat": 50.9483713, "lon": 6.9749386}, {"type": "node", "id": 660899136, "lat": 50.9481364, "lon": 6.9749971}, {"type": "node", "id": 660899137, "lat": 50.9481273, "lon": 6.9749867}, {"type": "node", "id": 660899138, "lat": 50.9480162, "lon": 6.9750728}, {"type": "node", "id": 660899139, "lat": 50.9479609, "lon": 6.9750731}, {"type": "node", "id": 661055188, "lat": 50.9377913, "lon": 6.9622064, "tags": {"addr:postcode": "50667", "amenity": "cafe", "name": "Beppo Bratu"}}, {"type": "node", "id": 662763200, "lat": 50.9389903, "lon": 6.9502346, "tags": {"amenity": "cafe", "cuisine": "ice_cream", "name": "Eis Caf\u00e9 Colonia", "outdoor_seating": "yes", "source": "photography", "wheelchair": "limited"}}, {"type": "node", "id": 677442825, "lat": 50.956588, "lon": 6.9193492, "tags": {"amenity": "cafe", "email": "baerbel@cafe-sommerfeldt.de", "name": "Caf\u00e9 Sommerfeldt", "opening_hours": "Mo-Sa 09:00+; Su 14:00+", "phone": "+49 221 22203141", "source": "photography", "website": "http://www.cafe-sommerfeldt.de/", "wheelchair": "yes"}}, {"type": "node", "id": 690207481, "lat": 50.9476565, "lon": 6.9209112, "tags": {"addr:city": "K\u00f6ln", "addr:housenumber": "6", "addr:postcode": "50823", "addr:street": "Geisselstra\u00dfe", "amenity": "cafe", "breakfast": "yes", "cafe": "yes", "cuisine": "crepe;french", "diet:vegan": "yes", "diet:vegetarian": "yes", "name": "LizB\u00c4T", "opening_hours": "Mo-Fr 09:00-01:00, Sa-Su 10:00-01:00", "operator": "Crepes Gastst\u00e4tten GmbH", "outdoor_seating": "yes", "phone": "+49 221 5104566", "pub": "yes", "toilets:wheelchair": "no", "website": "http://www.lizbaet.de/", "wheelchair": "yes", "wheelchair:description": "Toilette ebenderdig"}}, {"type": "node", "id": 690261608, "lat": 50.9113709, "lon": 6.9424084, "tags": {"addr:housenumber": "19", "addr:postcode": "50969", "addr:street": "Irmgardstra\u00dfe", "amenity": "cafe", "contact:website": "http://www.cafe-kleks.de/", "fair_trade": "yes", "name": "Caf\u00e9 de Kok", "opening_hours": "Di. bis So. von 9:00 bis 18:00 Uhr", "organic": "yes", "outdoor_seating": "yes", "phone": "+49 (0)221 27087350", "takeaway": "no", "website": "http://www.cafedekok.de/", "wheelchair": "limited"}}, {"type": "node", "id": 698868690, "lat": 50.9202842, "lon": 7.0965587, "tags": {"amenity": "cafe", "name": "Cafe am K\u00f6nigsforst", "wheelchair": "yes"}}, {"type": "node", "id": 704452964, "lat": 50.9389426, "lon": 6.9486624, "tags": {"amenity": "cafe", "name": "Alfredo", "smoking": "no", "wheelchair": "limited"}}, {"type": "node", "id": 710564986, "lat": 50.9390135, "lon": 6.9597549, "tags": {"addr:postcode": "50667", "amenity": "cafe", "internet_access": "wlan", "internet_access:fee": "no", "name": "Caf\u00e9-Lounger Alter Markt 55", "opening_hours": "Mo-Su 06:30-10:30,11:00-22:00", "outdoor_seating": "yes", "website": "http://www.cityclass.de/Residence_Gastronomie.htm?ActiveID=1145", "wheelchair": "limited"}}, {"type": "node", "id": 717639965, "lat": 50.938904, "lon": 6.933672, "tags": {"addr:city": "K\u00f6ln", "addr:country": "DE", "addr:housenumber": "16", "addr:postcode": "50674", "addr:street": "Br\u00fcsseler Platz", "amenity": "cafe", "contact:email": "cafebrussels@googlemail.com", "name": "Brussels", "opening_hours": "Mo-Th 11:00-23:00; Fr 11:00-24:00; Sa 00:00-01:00,11:00-24:00; Su 00:00-01:00,11:00-23:00", "phone": "+4922116824821", "wheelchair": "limited"}}, {"type": "node", "id": 743374938, "lat": 50.9467278, "lon": 6.9704892}, {"type": "node", "id": 743374942, "lat": 50.9467377, "lon": 6.9711032}, {"type": "node", "id": 743374946, "lat": 50.9463983, "lon": 6.9703242}, {"type": "node", "id": 743374947, "lat": 50.9467343, "lon": 6.9711336}, {"type": "node", "id": 743374949, "lat": 50.9463614, "lon": 6.9708892}, {"type": "node", "id": 743374950, "lat": 50.9464029, "lon": 6.9710339}, {"type": "node", "id": 743374951, "lat": 50.9464451, "lon": 6.9711278}, {"type": "node", "id": 743374952, "lat": 50.9466565, "lon": 6.9711695}, {"type": "node", "id": 743374953, "lat": 50.9466614, "lon": 6.9711176}, {"type": "node", "id": 743374956, "lat": 50.9463325, "lon": 6.9709721}, {"type": "node", "id": 752045462, "lat": 50.9462213, "lon": 6.9256186, "tags": {"amenity": "cafe", "internet_access": "wlan", "internet_access:fee": "no", "name": "Weltempf\u00e4nger", "opening_hours": "Su-Th 08:00-01:00, Fr-Sa 08:00+", "toilets:wheelchair": "no", "website": "https://www.koeln-hostel.de/cafe/index.php?lang=", "wheelchair": "limited"}}, {"type": "node", "id": 765264588, "lat": 50.9629202, "lon": 7.0130277, "tags": {"amenity": "cafe", "name": "Caf\u00e9 Selim"}}, {"type": "node", "id": 768139949, "lat": 50.942354, "lon": 6.9571907, "tags": {"addr:city": "K\u00f6ln", "addr:country": "DE", "addr:housenumber": "1", "addr:postcode": "50667", "addr:street": "Bahnhofsvorplatz", "amenity": "cafe", "name": "Galestro", "opening_hours": "Mo-Sa 07:30-21:00; Su 10:00-20:00", "phone": "+492211260348", "source": "photography", "website": "http://www.galestro.com/espressobars#koelnbahnhofsvorplatz/", "wheelchair": "limited"}}, {"type": "node", "id": 768877782, "lat": 50.934909, "lon": 6.9977219, "tags": {"addr:city": "K\u00f6ln", "addr:country": "DE", "addr:housenumber": "1", "addr:postcode": "51105", "addr:street": "Taunusstra\u00dfe", "amenity": "cafe", "name": "Casablanca", "wheelchair": "limited"}}, {"type": "node", "id": 769203843, "lat": 50.952656, "lon": 6.9131928, "tags": {"amenity": "cafe", "cuisine": "ice_cream", "email": "info@eisdielerin.de", "name": "Die Eisdielerin", "operator": "Mo off; Tu-Su 12:00-20:00", "phone": "+49 221 99300597", "source": "photography", "wheelchair": "no"}}, {"type": "node", "id": 772522951, "lat": 50.9315901, "lon": 6.9325237, "tags": {"addr:city": "K\u00f6ln", "addr:country": "DE", "addr:housenumber": "97", "addr:postcode": "50674", "addr:street": "Lindenstra\u00dfe", "amenity": "cafe", "cuisine": "cake;ice_cream", "email": "cafe.braun@koeln.de", "name": "Cafe Braun", "opening_hours": "We-Su 11:00-19:00", "outdoor_seating": "yes", "website": "http://www.cafebraun.com/", "wheelchair": "limited"}}, {"type": "node", "id": 781764703, "lat": 50.9217032, "lon": 6.9550323, "tags": {"amenity": "cafe", "cuisine": "spanish", "name": "Mi Tienda", "opening_hours": "Mo-Fr 8:30-18:30; Sa 10:00-16:00"}}, {"type": "node", "id": 781793053, "lat": 50.9228383, "lon": 6.9567478, "tags": {"addr:city": "K\u00f6ln", "addr:country": "DE", "addr:housenumber": "2", "addr:postcode": "50678", "addr:street": "Kart\u00e4userhof", "amenity": "cafe", "name": "HaPTiLu", "website": "http://www.haptilu.de"}}, {"type": "node", "id": 800258861, "lat": 50.9246912, "lon": 6.9309627, "tags": {"amenity": "cafe", "name": "AStA-Caf\u00e9", "website": "http://www.asta.uni-koeln.de/service/asta-cafe/", "wheelchair": "yes"}}, {"type": "node", "id": 818639075, "lat": 50.8804119, "lon": 7.1198613, "tags": {"amenity": "cafe", "layer": "1", "name": "K\u00e4fer DeilLounge", "wheelchair": "no"}}, {"type": "node", "id": 818639200, "lat": 50.8777982, "lon": 7.1221266, "tags": {"amenity": "cafe", "layer": "1", "name": "Kamps", "name:it": "Kamps"}}, {"type": "node", "id": 818639212, "lat": 50.8776754, "lon": 7.1221199, "tags": {"amenity": "cafe", "brand": "Starbucks", "brand:wikidata": "Q37158", "brand:wikipedia": "en:Starbucks", "cuisine": "coffee_shop", "layer": "1", "name": "Starbucks", "name:it": "Starbucks", "official_name": "Starbucks Coffee", "takeaway": "yes"}}, {"type": "node", "id": 818639219, "lat": 50.880678, "lon": 7.119356, "tags": {"amenity": "cafe", "layer": "1", "name": "Cafeterio", "wheelchair": "no"}}, {"type": "node", "id": 823682739, "lat": 50.9467348, "lon": 6.9237618, "tags": {"amenity": "cafe", "breakfast": "yes", "name": "Schwesterherz", "opening_hours": "Mo-Fr 09:00-19:00; Sa-Su 10:00-19:00", "website": "http://www.schwesterherz-koeln.de/", "wheelchair": "no"}}, {"type": "node", "id": 846980627, "lat": 50.9354727, "lon": 6.8686525, "tags": {"amenity": "cafe", "name": "Cafeteria \"Auszeit\"", "source": "photography", "website": "http://www.kstw.de/index.php?option=com_content&view=article&id=336&Itemid=167&lang=de"}}, {"type": "node", "id": 847541809, "lat": 50.9401049, "lon": 7.0304002, "tags": {"addr:city": "K\u00f6ln", "addr:country": "DE", "addr:housenumber": "262", "addr:postcode": "51103", "addr:street": "Olpener Stra\u00dfe", "amenity": "cafe", "cuisine": "cake", "name": "Konditorei Kl\u00fcppelberg", "website": "http://www.konditorei-klueppelberg.de/", "wheelchair": "limited", "yelp": "http://www.yelp.de/biz/konditorei-kl%C3%BCppelberg-k%C3%B6ln-2"}}, {"type": "node", "id": 888419043, "lat": 50.9181116, "lon": 6.9251516, "tags": {"addr:city": "K\u00f6ln", "addr:housenumber": "211", "addr:street": "Berrenrather Stra\u00dfe", "amenity": "cafe", "name": "e bom!", "wheelchair": "no"}}, {"type": "node", "id": 893083740, "lat": 50.9379702, "lon": 6.8625353, "tags": {"addr:city": "K\u00f6ln", "addr:country": "DE", "addr:housenumber": "1002", "addr:postcode": "50858", "addr:street": "Aachener Stra\u00dfe", "amenity": "cafe", "cuisine": "bistro", "name": "Le Bistrot 99", "opening_hours": "Mo-Fr 12:00+; Sa 18:00+", "source": "photography", "website": "https://www.lebistrot99.com//"}}, {"type": "node", "id": 937535734, "lat": 50.9419605, "lon": 6.9380905, "tags": {"addr:city": "K\u00f6ln", "addr:country": "DE", "addr:housenumber": "14", "addr:postcode": "50672", "addr:street": "Kamekestra\u00dfe", "amenity": "cafe", "community_centre": "youth_centre;lgbtq", "community_centre:for": "lgbtq", "cuisine": "pizza;coffee_shop", "description": "Youth centre for young lesbian, gay, bi, trans* and queer people.", "internet_access": "wlan", "internet_access:fee": "no", "name": "anyway", "opening_hours": "We 16:00-22:00; Th 17:00-23:00; Fr 19:00-23:59", "outdoor_seating": "no", "smoking": "no", "start_date": "1998", "toilets:wheelchair": "yes", "website": "https://www.anyway-koeln.de/", "wheelchair": "yes"}}, {"type": "node", "id": 940040784, "lat": 50.9424021, "lon": 6.9551004, "tags": {"amenity": "cafe", "name": "Ballucci", "opening_hours": "Mo-Fr 10:00-16:00"}}, {"type": "node", "id": 956085849, "lat": 50.9655388, "lon": 6.9770451, "tags": {"amenity": "cafe", "internet_access": "yes", "internet_access:fee": "yes", "name": "Internetcafe Karadeniz", "wheelchair": "yes"}}, {"type": "node", "id": 960118095, "lat": 50.949695, "lon": 6.9550046, "tags": {"addr:city": "K\u00f6ln", "addr:country": "DE", "addr:housenumber": "98", "addr:postcode": "50670", "addr:street": "Hansaring", "amenity": "cafe", "name": "Cafe Schmitz", "toilets:wheelchair": "no", "wheelchair": "no"}}, {"type": "node", "id": 960119259, "lat": 50.949362, "lon": 6.956184, "tags": {"addr:city": "K\u00f6ln", "addr:country": "DE", "addr:housenumber": "1", "addr:postcode": "50668", "addr:street": "L\u00fcbecker Stra\u00dfe", "amenity": "cafe", "brand:wikidata": "Q1025505", "cuisine": "burger;breakfast;international;coffee_shop;cake", "drive_through": "no", "email": "koeln-eigelstein@cafe-extrablatt.de", "fax": "+49 221 17939272", "internet_access": "wlan", "name": "Cafe Extrablatt", "opening_hours": "Mo-Sa 08:00-24:00; Su 09:00-24:00", "operator": "Cafe Extrablatt Eigelstein GmbH", "outdoor_seating": "yes", "phone": "+49 221 17939271", "website": "https://cafe-extrablatt.de/standorte/details/cafe-extrablatt-koeln-eigelstein", "wheelchair": "no"}}, {"type": "node", "id": 960172421, "lat": 50.949582, "lon": 6.957178, "tags": {"addr:city": "K\u00f6ln", "addr:country": "DE", "addr:housenumber": "124", "addr:street": "Eigelstein", "amenity": "cafe", "drive_through": "no", "name": "Klaaf", "outdoor_seating": "yes", "wheelchair": "limited"}}, {"type": "node", "id": 964735300, "lat": 50.9398891, "lon": 6.9547573, "tags": {"amenity": "cafe", "email": "mak@holtmanns.com", "name": "Holtmann's im Museum f\u00fcr Angewandte Kunst", "note": "\u00d6ffentlich, auch ohne Eintritt, zug\u00e4nglich", "opening_hours": "Mo off; Tu-Su 10:00-18:00; Th[1] 10:00-22:00 \"K\u00f6lntag\"; PH 10:00-17:00; Dec 24,Dec 25,Dec 31,Jan 01 off || \"Karneval (Weiberfastnacht bis Karnevalsdienstag) geschlossen\"", "outdoor_seating": "yes", "phone": "+49 221 27798860", "source": "photography", "website": "http://www.holtmanns.com", "wheelchair": "yes"}}, {"type": "node", "id": 990217365, "lat": 50.9339386, "lon": 6.9484581, "tags": {"amenity": "cafe", "name": "Libresso", "opening_hours": "Mo-Sa 10:00-22:30; Su,PH 13:00-22:30", "toilets:wheelchair": "no", "website": "http://www.cafelibresso.de/", "wheelchair": "yes"}}, {"type": "node", "id": 1004021483, "lat": 50.9301, "lon": 6.9571662, "tags": {"amenity": "cafe", "name": "Pausenbrot"}}, {"type": "node", "id": 1013141580, "lat": 50.9363731, "lon": 6.9335867, "tags": {"addr:city": "K\u00f6ln", "addr:housenumber": "45", "addr:postcode": "50674", "addr:street": "Aachener Stra\u00dfe", "amenity": "cafe", "internet_access": "wlan", "name": "cafecafe", "opening_hours": "Mo-Fr 07:30-18:00, Sa 09:00-18:00", "payment:cash": "yes", "payment:contactless": "yes", "payment:credit_cards": "yes", "payment:ec_cards": "yes", "payment:girocard": "yes", "payment:mastercard": "yes", "payment:visa": "yes", "phone": "+492212706639", "website": "https://cafecafe.eatbu.com", "wheelchair": "no"}}, {"type": "node", "id": 1019308007, "lat": 50.9427839, "lon": 6.9351968}, {"type": "node", "id": 1020616638, "lat": 50.9429346, "lon": 6.9421577, "tags": {"amenity": "cafe", "name": "Quartier\u00b4s Bistro"}}, {"type": "node", "id": 1020616644, "lat": 50.9429759, "lon": 6.941226, "tags": {"addr:city": "K\u00f6ln", "addr:country": "DE", "addr:housenumber": "10", "addr:postcode": "50672", "addr:street": "Kaiser-Wilhelm-Ring", "amenity": "cafe", "name": "Romeo! Romeo!", "outdoor_seating": "yes"}}, {"type": "node", "id": 1024920153, "lat": 50.9399571, "lon": 7.0110244, "tags": {"amenity": "cafe", "name": "Cafe Bistro", "wheelchair": "limited"}}, {"type": "node", "id": 1024950550, "lat": 50.939598, "lon": 7.0116807, "tags": {"amenity": "cafe", "name": "Margilem Cafe", "note": "Cafe, Internet, Spielautomaten"}}, {"type": "node", "id": 1024950567, "lat": 50.9397707, "lon": 7.0129406, "tags": {"amenity": "cafe", "name": "Zara Bistro"}}, {"type": "node", "id": 1025038980, "lat": 50.9399466, "lon": 7.0076121, "tags": {"amenity": "cafe", "name": "Cafe 18 (Cafe-Bistro)"}}, {"type": "node", "id": 1025197040, "lat": 50.9288788, "lon": 6.9576768, "tags": {"addr:city": "K\u00f6ln", "addr:country": "DE", "addr:housenumber": "1", "addr:postcode": "50678", "addr:street": "An Zint Jan", "amenity": "cafe", "name": "CRUX", "website": "https://www.crux-koeln.de/"}}, {"type": "node", "id": 1033499764, "lat": 50.9483347, "lon": 6.9454173, "tags": {"amenity": "cafe", "name": "Freiraum", "website": "http://cafe-freiraum.de/"}}, {"type": "node", "id": 1038738835, "lat": 50.9388722, "lon": 7.001263, "tags": {"amenity": "cafe", "name": "Cafe und mehr"}}, {"type": "node", "id": 1039919887, "lat": 50.9424059, "lon": 7.0017152, "tags": {"amenity": "cafe", "name": "Cafe No1"}}, {"type": "node", "id": 1045649835, "lat": 50.9169177, "lon": 6.925921, "tags": {"addr:city": "K\u00f6ln", "addr:country": "DE", "addr:housenumber": "23", "addr:postcode": "50937", "addr:street": "S\u00fclzburgstra\u00dfe", "amenity": "cafe", "name": "Melange orange", "opening_hours": "Mo-Fr 07:30-19:00; Sa 09:00-19:00", "wheelchair": "no"}}, {"type": "node", "id": 1045649890, "lat": 50.9114111, "lon": 6.9233421, "tags": {"amenity": "cafe", "email": "mail@cafe333.com", "name": "Caf\u00e9 333", "phone": "+49 221 44909319", "website": "http://www.cafe333.com", "wheelchair": "limited"}}, {"type": "node", "id": 1049076004, "lat": 50.946086, "lon": 6.9388475, "tags": {"addr:city": "K\u00f6ln", "addr:country": "DE", "addr:housenumber": "31", "addr:postcode": "50672", "addr:street": "Gladbacher Stra\u00dfe", "amenity": "cafe", "name": "Cafe Goldjunge", "opening_hours": "Mo-Fr 09:00-17:00; Sa-Su, PH 08:00-17:00", "phone": "+49221 30502283", "website": "http://cafe-goldjunge.de/", "wheelchair": "yes"}}, {"type": "node", "id": 1089025098, "lat": 50.9405538, "lon": 7.0068632, "tags": {"amenity": "cafe", "name": "Caribic Cafe/Bistro"}}, {"type": "node", "id": 1089025106, "lat": 50.9425234, "lon": 7.0058702, "tags": {"amenity": "cafe", "name": "Bistro Cafe Balcik"}}, {"type": "node", "id": 1089025197, "lat": 50.9426955, "lon": 7.0069057, "tags": {"amenity": "cafe", "name": "Selos Eck Stehcafe+DDP Paketshop", "opening_hours": "Mo-Fr 07:00-24:00, Sa 08:00-24:00, Su 09:00-24:00"}}, {"type": "node", "id": 1089025202, "lat": 50.9450442, "lon": 7.0075099, "tags": {"amenity": "cafe", "name": "Taksim Cafe und Bistro", "toilets:wheelchair": "no", "wheelchair": "limited"}}, {"type": "node", "id": 1089124067, "lat": 50.9415498, "lon": 7.0029128, "tags": {"amenity": "cafe", "name": "Teestube Bereket", "opening_hours": "Mo-Su 09:00-02:00"}}, {"type": "node", "id": 1098303947, "lat": 50.9402088, "lon": 7.0068886, "tags": {"amenity": "cafe", "internet_access": "no", "name": "Fr\u00fchstart Coffee and Snack House"}}, {"type": "node", "id": 1108425842, "lat": 50.9172725, "lon": 6.9609049, "tags": {"addr:city": "K\u00f6ln", "addr:housenumber": "69", "addr:postcode": "50677", "addr:street": "Bonner Stra\u00dfe", "amenity": "cafe", "name": "Flakes Corner", "website": "http://flakes-corner.com/", "wheelchair": "limited"}}, {"type": "node", "id": 1116969397, "lat": 50.9313855, "lon": 6.9250891, "tags": {"amenity": "cafe", "internet_access": "no", "name": "ESG, Cafe Sandspur", "wheelchair": "no"}}, {"type": "node", "id": 1151500324, "lat": 50.9323157, "lon": 6.9214143, "tags": {"amenity": "cafe", "name": "Cafe Hirsch", "wheelchair": "no"}}, {"type": "node", "id": 1152590447, "lat": 50.9811136, "lon": 7.0239041, "tags": {"addr:city": "K\u00f6ln", "addr:country": "DE", "addr:housenumber": "330", "addr:postcode": "51061", "addr:street": "Berliner Stra\u00dfe", "amenity": "cafe", "name": "Caf\u00e9 330"}}, {"type": "node", "id": 1198775104, "lat": 50.9579955, "lon": 7.0106891, "tags": {"amenity": "cafe", "atm": "yes", "internet_access": "yes", "name": "Diamonds", "opening_hours": "Mo-Sa 09:00-21:00, Su,PH 11:00-20:00", "source": "photography", "source:date": "2011-02-26"}}, {"type": "node", "id": 1205068175, "lat": 50.947833, "lon": 6.9752213}, {"type": "node", "id": 1233484707, "lat": 50.9413626, "lon": 6.9351069, "tags": {"addr:city": "K\u00f6ln", "addr:housenumber": "44", "addr:postcode": "50672", "addr:street": "Bismarckstra\u00dfe", "amenity": "cafe", "name": "Woyton", "opening_hours": "Mo-Fr 08:00-20:00;Sa-Su 10:00-20:00", "source": "http://www.woyton.de/locations/", "website": "http://www.woyton.de/", "wheelchair": "limited"}}, {"type": "node", "id": 1233497108, "lat": 50.93493, "lon": 6.934379, "tags": {"amenity": "cafe", "cuisine": "coffee_shop", "diet:vegan": "yes", "name": "vevi", "opening_hours": "Mo 09:00-17:00; We-Fr 09:00-17:00; Sa-Su 10:00-18:00", "wheelchair": "limited"}}, {"type": "node", "id": 1239618953, "lat": 50.9640752, "lon": 7.0210199, "tags": {"addr:city": "K\u00f6ln", "addr:country": "DE", "addr:housenumber": "16", "addr:postcode": "51067", "addr:street": "Wichheimer Stra\u00dfe", "amenity": "cafe", "internet_access": "yes", "name": "Caf\u00e9 Sah\u00e2n"}}, {"type": "node", "id": 1242256441, "lat": 50.9534864, "lon": 6.9206126, "tags": {"amenity": "cafe", "name": "Samata"}}, {"type": "node", "id": 1252516733, "lat": 50.9241226, "lon": 6.9123441, "tags": {"addr:city": "K\u00f6ln", "addr:country": "DE", "addr:housenumber": "48", "addr:postcode": "50935", "addr:street": "Lindenthalg\u00fcrtel", "amenity": "cafe", "cuisine": "ice_cream", "name": "Eiscafe La Perla"}}, {"type": "node", "id": 1327631523, "lat": 50.9529834, "lon": 6.9582463, "tags": {"amenity": "cafe", "name": "Mutter Kind Cafe", "wheelchair": "limited"}}, {"type": "node", "id": 1327631529, "lat": 50.9530283, "lon": 6.9592108, "tags": {"addr:street": "Lupusstra\u00dfe", "amenity": "cafe", "name": "Caf\u00e9 Lupus"}}, {"type": "node", "id": 1327646867, "lat": 50.9524603, "lon": 6.9573725, "tags": {"addr:city": "K\u00f6ln", "addr:housenumber": "28", "addr:postcode": "50670", "addr:street": "Neusser Stra\u00dfe", "amenity": "cafe", "name": "[ cafe bar ]", "opening_hours": "Mo-Fr 07:00-19:00; Sa 08:00-18:00; Su 09:00-18:00", "outdoor_seating": "yes"}}, {"type": "node", "id": 1338122169, "lat": 50.9496808, "lon": 7.0053188, "tags": {"addr:city": "K\u00f6ln", "addr:postcode": "51065", "addr:street": "Waldecker Stra\u00dfe", "amenity": "cafe", "internet_access": "no", "name": "B\u00e4ckerei Caf\u00e9 Jung", "outdoor_seating": "yes", "shop": "bakery", "smoking": "outside", "wheelchair": "yes"}}, {"type": "node", "id": 1341316048, "lat": 50.9428854, "lon": 6.9576234, "tags": {"addr:city": "K\u00f6ln", "addr:housenumber": "11", "addr:postcode": "50667", "addr:street": "Trankgasse", "amenity": "cafe", "brand": "Starbucks", "brand:wikidata": "Q37158", "brand:wikipedia": "en:Starbucks", "cuisine": "coffee_shop", "diet:vegetarian": "yes", "internet_access": "wlan", "internet_access:fee": "no", "level": "0", "name": "Starbucks", "official_name": "Starbucks Coffee", "opening_hours": "Mo-Fr 05:30-23:00;Sa-Su 06:00-23:00", "smoking": "outside", "takeaway": "yes", "website": "https://www.starbucks.de/store/2029/", "wheelchair": "yes"}}, {"type": "node", "id": 1352789227, "lat": 50.931859, "lon": 6.9191277, "tags": {"addr:city": "K\u00f6ln", "addr:postcode": "50931", "addr:street": "D\u00fcrener Stra\u00dfe", "amenity": "cafe", "name": "K\u00f6lner Kaffeemanufaktur", "opening_hours": "Mo-Fr 09:00-19:00; Sa 09:00-16:00", "wheelchair": "limited"}}, {"type": "node", "id": 1359428815, "lat": 50.8914959, "lon": 6.9964003, "tags": {"amenity": "cafe", "cuisine": "italian", "entrance": "yes", "name": "Cortina", "smoking": "outside", "source": "survey"}}, {"type": "node", "id": 1369858409, "lat": 50.9483428, "lon": 6.9209132, "tags": {"amenity": "cafe", "diet:vegan": "no", "diet:vegetarian": "yes", "name": "Saudade", "opening_hours": "Tu-Sa 18:00-24:00", "wheelchair": "no"}}, {"type": "node", "id": 1370091341, "lat": 50.94927, "lon": 6.922568, "tags": {"addr:city": "K\u00f6ln", "addr:housenumber": "43", "addr:postcode": "50823", "addr:street": "K\u00f6rnerstra\u00dfe", "amenity": "cafe", "contact:email": "info@vandyckkaffee.de", "name": "Van Dyck R\u00f6sterei", "opening_hours": "Mo-Fr 09:00-19:00, Sa 09:00-18:00; PH off", "phone": "+49 221 29833552", "website": "https://www.vandyckkaffee.de/", "wheelchair": "limited"}}, {"type": "node", "id": 1390714407, "lat": 50.9389011, "lon": 6.9335188, "tags": {"addr:housenumber": "18", "addr:street": "Br\u00fcsseler Platz", "amenity": "cafe", "name": "Miss P\u00e4pki petit dej", "toilets:wheelchair": "no", "wheelchair": "no"}}, {"type": "node", "id": 1404490535, "lat": 50.8655416, "lon": 7.0178902}, {"type": "node", "id": 1404490537, "lat": 50.8656352, "lon": 7.0177586}, {"type": "node", "id": 1404490538, "lat": 50.8656443, "lon": 7.0180736}, {"type": "node", "id": 1404490541, "lat": 50.8657379, "lon": 7.017942}, {"type": "node", "id": 1420001047, "lat": 50.9280788, "lon": 6.9277182, "tags": {"amenity": "cafe", "cuisine": "bistro;coffee_shop", "fax": "+49 221 9415 571", "name": "PhilCaf\u00e9", "opening_hours": "Bistro im Semester Mo-Do 08:00-16:30; Fr 08:00-15:00; in den Semesterferien Mo-Fr 08:00-15:00; Mittagessen im Semester Mo-Fr 11:30-14:00; Kaffeebar im Semester Mo-Do 09:00-18:00; Fr 09:00-16:00; Sa 08:00-14:00; in den Semesterferien Mo-Fr 09:00-16:00", "outdoor_seating": "yes", "payment:cash": "yes", "payment:electronic_purses": "yes", "phone": "+49 221 9415 570", "wheelchair": "yes"}}, {"type": "node", "id": 1431777757, "lat": 50.9361553, "lon": 6.9417101, "tags": {"amenity": "cafe", "name": "Hanfbar", "opening_hours": "Mo-Sa 12:00-18:00", "website": "https://www.hanf.bar/"}}, {"type": "node", "id": 1431911427, "lat": 50.9364543, "lon": 6.9409393, "tags": {"amenity": "cafe", "cuisine": "ice_cream", "name": "Caf\u00e9 il Barista", "opening_hours": "Mo-Su 10:30-23:00", "outdoor_seating": "yes", "wheelchair": "yes"}}, {"type": "node", "id": 1431911473, "lat": 50.9363819, "lon": 6.9408477, "tags": {"amenity": "cafe", "name": "Caf\u00e9 il Barista"}}, {"type": "node", "id": 1431926133, "lat": 50.9267878, "lon": 6.9272749, "tags": {"amenity": "cafe", "cuisine": "italian;coffee_shop", "fax": "+49 221 9415 575", "name": "piccolo w", "opening_hours": "Im Semester: Mo-Do 8:30-17:00; Fr 8:30-15:00; in den Semesterferien geschlossen", "outdoor_seating": "yes", "payment:cash": "yes", "payment:electronic_purses": "yes", "phone": "+49 173 7455 012", "wheelchair": "yes"}}, {"type": "node", "id": 1431926134, "lat": 50.9284376, "lon": 6.9296888, "tags": {"access": "yes", "alt_name": "E-Raum", "amenity": "cafe", "level": "-1", "name": "Erfrischungsraum", "opening_hours": "Mo-Th 07:30-17:45; Fr 07:30-15:00; Sa 09:00-14:00", "snacks": "yes", "wheelchair": "yes"}}, {"type": "node", "id": 1431926136, "lat": 50.9341609, "lon": 6.9195527, "tags": {"amenity": "cafe", "noname": "yes", "opening_hours:signed": "no", "wheelchair": "yes"}}, {"type": "node", "id": 1442229398, "lat": 50.937515, "lon": 6.9424212, "tags": {"amenity": "cafe", "name": "Gesund & S\u00fc\u00df", "opening_hours": "Mo-Sa 12:00-18:00; Su, PH off", "website": "https://www.gesundundsuess.de/"}}, {"type": "node", "id": 1447074389, "lat": 51.0154938, "lon": 6.8582002, "tags": {"addr:city": "K\u00f6ln", "addr:housenumber": "35", "addr:postcode": "50765", "addr:street": "Frohnhofstra\u00dfe", "amenity": "cafe", "name": "Caf\u00e9.Bistro.Restaurant Mir\u00f3", "phone": "+49 221 9591024", "toilets:wheelchair": "no", "website": "http://www.bistro-miro.de/", "wheelchair": "limited", "wheelchair:description": "Stufenlos; kein Rolli-WC; 2 Stufen zum WC"}}, {"type": "node", "id": 1457249449, "lat": 50.9591553, "lon": 6.9493393, "tags": {"addr:city": "K\u00f6ln", "addr:housenumber": "53", "addr:postcode": "50733", "addr:street": "Merheimer Stra\u00dfe", "amenity": "cafe", "email": "kommoedchen@nippeser.de", "name": "Caf\u00e9 Komm\u00f6dchen", "phone": "+49 221 725878", "smoking": "separated", "toilets:wheelchair": "no", "wheelchair": "limited"}}, {"type": "node", "id": 1473125366, "lat": 50.9415667, "lon": 6.9553184, "tags": {"amenity": "cafe", "diet:vegan": "yes", "diet:vegetarian": "yes", "email": "info@fantea.de", "name": "Fan Tea", "opening_hours": "Mo-Sa 12:00-21:00; Su,PH 12:00-20:30", "phone": "+49 221 5981 4663", "website": "https://www.fantea.de/", "wheelchair": "yes"}}, {"type": "node", "id": 1485723661, "lat": 50.8724826, "lon": 7.029011, "tags": {"addr:housenumber": "63", "addr:postcode": "50999", "addr:street": "Auf der Ruhr", "amenity": "cafe", "cuisine": "ice_cream", "name": "Eiscafe Marano", "source": "survey", "wheelchair": "yes", "wifi": "no"}}, {"type": "node", "id": 1490848235, "lat": 50.9949192, "lon": 6.9256567, "tags": {"amenity": "cafe", "name": "Croissini", "opening_hours": "Mo-Fr 06:30-18:30, Sa 06:30-13:00", "wheelchair": "no"}}, {"type": "node", "id": 1559515510, "lat": 50.9443291, "lon": 6.9605141, "tags": {"amenity": "cafe", "name": "Schnicks Casino Lounge", "wheelchair": "no"}}, {"type": "node", "id": 1562396467, "lat": 50.9347407, "lon": 6.9507829, "tags": {"amenity": "cafe", "name": "Kolbs im Kulturquartier", "toilets:wheelchair": "yes", "website": "http://kolbs-im-kulturquartier.de/", "wheelchair": "yes"}}, {"type": "node", "id": 1574173960, "lat": 50.9391512, "lon": 6.9531017, "tags": {"amenity": "cafe", "name": "Alfredo"}}, {"type": "node", "id": 1579254277, "lat": 50.9356878, "lon": 6.9745144, "tags": {"addr:city": "K\u00f6ln", "addr:housenumber": "27", "addr:postcode": "50679", "addr:street": "Mathildenstra\u00dfe", "amenity": "cafe", "breakfast": "yes", "food": "yes", "name": "Villa Mathilde", "opening_hours": "Tu-Su 10:30-18:00", "operator": "Thomas Kastner", "outdoor_seating": "yes", "toilets:wheelchair": "no", "website": "https://www.villamathilde.de/", "wheelchair": "yes"}}, {"type": "node", "id": 1583754137, "lat": 50.9466769, "lon": 6.9565825, "tags": {"amenity": "cafe", "cuisine": "ice_cream", "name": "Bambi"}}, {"type": "node", "id": 1583877671, "lat": 50.9464006, "lon": 6.9565369, "tags": {"amenity": "cafe", "name": "Steh-Cafe"}}, {"type": "node", "id": 1598829078, "lat": 50.9444877, "lon": 6.9237073, "tags": {"amenity": "cafe", "name": "Goldbraun", "opening_hours": "Mo-Fr 11:00-18:00; Sa 12:00-18:00", "wheelchair": "limited"}}, {"type": "node", "id": 1601118162, "lat": 50.9201173, "lon": 7.0986912, "tags": {"addr:housenumber": "2", "addr:postcode": "51107", "addr:street": "Rather Mauspfad", "amenity": "cafe", "name": "Schmitzebud", "wheelchair": "yes"}}, {"type": "node", "id": 1602177040, "lat": 50.9978989, "lon": 6.8768564, "tags": {"amenity": "cafe", "name": "Voosen", "shop": "bakery", "shop:pastry": "yes", "website": "https://baeckerei-voosen.de/"}}, {"type": "node", "id": 1609172952, "lat": 50.9389616, "lon": 6.9480055, "tags": {"addr:city": "K\u00f6ln", "addr:housenumber": "92-98", "addr:postcode": "50667", "addr:street": "Breite Stra\u00dfe", "amenity": "cafe", "brand:wikidata": "Q1025505", "email": "koeln-breitestr@cafe-extrablatt.de", "internet_access": "wlan", "name": "Cafe Extrablatt", "opening_hours": "Mo-Su,PH 09:00-24:00", "operator": "Pure Gastronomie GmbH,", "outdoor_seating": "yes", "payment:cash": "yes", "payment:maestro": "yes", "payment:mastercard": "yes", "payment:visa": "yes", "phone": "+49 221 27046858", "website": "https://cafe-extrablatt.de/standorte/details/cafe-extrablatt-koeln-breite-strasse/", "wheelchair": "yes"}}, {"type": "node", "id": 1612848976, "lat": 50.8656864, "lon": 7.0180119}, {"type": "node", "id": 1613006418, "lat": 50.9325247, "lon": 6.858511, "tags": {"addr:city": "K\u00f6ln", "addr:housenumber": "121", "addr:postcode": "50858", "addr:street": "Kirchweg", "amenity": "cafe", "name": "Cafe Zimmermann", "opening_hours": "Mo-Fr 08:00-19:00; Sa 08:00-18:00; Su 10:00-18:00", "website": "http://www.cafezimmermann.de", "wheelchair": "limited"}}, {"type": "node", "id": 1644011347, "lat": 50.948247, "lon": 6.921923, "tags": {"amenity": "cafe", "name": "Herbistan"}}, {"type": "node", "id": 1668764067, "lat": 50.8578315, "lon": 7.0862734}, {"type": "node", "id": 1669898724, "lat": 50.8573399, "lon": 7.0874111}, {"type": "node", "id": 1669898731, "lat": 50.8573746, "lon": 7.0876141}, {"type": "node", "id": 1669898735, "lat": 50.8573958, "lon": 7.087605}, {"type": "node", "id": 1669898743, "lat": 50.8574086, "lon": 7.0873816}, {"type": "node", "id": 1669898749, "lat": 50.8574433, "lon": 7.0875846}, {"type": "node", "id": 1671128482, "lat": 51.0216067, "lon": 6.8998063, "tags": {"amenity": "cafe", "name": "Olko"}}, {"type": "node", "id": 1673071164, "lat": 50.8811557, "lon": 7.0809626, "tags": {"amenity": "cafe", "name": "Heisters", "opening_hours": "Mo-Fr 06:00-18:30; Sa 06:00-14:00; Su 07:30-12:00", "shop": "bakery", "wheelchair": "no", "wheelchair:description:de": "Stufen am Eingang"}}, {"type": "node", "id": 1674091653, "lat": 51.0221822, "lon": 6.899125, "tags": {"amenity": "cafe", "name": "Seniorencaf\u00e9 Treffpunkt", "wheelchair": "yes"}}, {"type": "node", "id": 1681486387, "lat": 50.9367426, "lon": 6.93993, "tags": {"amenity": "cafe", "brand": "McCaf\u00e9", "brand:wikidata": "Q3114287", "brand:wikipedia": "en:McCaf\u00e9", "cuisine": "coffee_shop", "name": "McCaf\u00e9", "operator:wikidata": "Q38076", "operator:wikipedia": "en:McDonald's", "takeaway": "yes", "toilets:wheelchair": "no", "wheelchair": "yes"}}, {"type": "node", "id": 1683451703, "lat": 51.0219974, "lon": 6.8988873, "tags": {"amenity": "cafe", "name": "Jugendcaf\u00e9 Pegasus"}}, {"type": "node", "id": 1683458631, "lat": 51.0211909, "lon": 6.9023151, "tags": {"amenity": "cafe", "name": "Jugendcaf\u00e9 Seeberger Treff"}}, {"type": "node", "id": 1701309490, "lat": 50.9373072, "lon": 6.819288, "tags": {"amenity": "cafe", "name": "Stammhaus", "opening_hours": "Mo-Th 12:00-17:00; Sa-Su 14:00-18:00", "website": "https://www.stammhaus.de/"}}, {"type": "node", "id": 1702751067, "lat": 50.9369038, "lon": 6.9747786, "tags": {"amenity": "cafe", "breakfast": "yes", "diet:vegan": "yes", "food": "yes", "internet_access": "wlan", "name": "Saint Louis", "opening_hours": "Mo-Fr 08:00-19:00; Sa 09:00-18:00", "outdoor_seating": "yes", "phone": "+49 221 99756650", "website": "http://saintlouisonline.de/", "wheelchair": "no"}}, {"type": "node", "id": 1718525869, "lat": 51.0004037, "lon": 7.0394503, "tags": {"addr:housenumber": "944", "addr:postcode": "51069", "addr:street": "Berliner Stra\u00dfe", "amenity": "cafe", "name": "Caf\u00e9 Mittendrin", "toilets:wheelchair": "no", "website": "https://www.cafe-mittendrin.de/", "wheelchair": "yes"}}, {"type": "node", "id": 1719176117, "lat": 50.8785199, "lon": 6.9624929, "tags": {"amenity": "cafe", "name": "Eiscafe van der Put"}}, {"type": "node", "id": 1728108567, "lat": 50.9635826, "lon": 6.9525136, "tags": {"addr:city": "K\u00f6ln", "addr:housenumber": "8", "addr:postcode": "50733", "addr:street": "Viersener Stra\u00dfe", "amenity": "cafe", "cuisine": "turkish", "internet_access": "yes", "name": "Mama's Eckkaffee", "outdoor_seating": "yes"}}, {"type": "node", "id": 1732537824, "lat": 50.9483378, "lon": 6.9749308}, {"type": "node", "id": 1732923432, "lat": 50.9506766, "lon": 6.9281012, "tags": {"amenity": "cafe", "name": "Bistro Caf\u00e9 Lort", "shop": "vacant"}}, {"type": "node", "id": 1772978939, "lat": 50.9366065, "lon": 6.9367216, "tags": {"addr:housenumber": "18", "addr:street": "Aachener Stra\u00dfe", "amenity": "cafe", "cuisine": "ice_cream", "name": "Foxberry Frozen Yogurt"}}, {"type": "node", "id": 1773928958, "lat": 50.9653338, "lon": 6.8322772, "tags": {"amenity": "cafe", "cuisine": "ice_cream", "diet:vegan": "no", "diet:vegetarian": "yes", "name": "Eiscaf\u00e9 Dolomiti Due", "opening_hours": "closed \"winter pause\"", "wheelchair": "yes"}}, {"type": "node", "id": 1787350862, "lat": 50.9352363, "lon": 6.9381247, "tags": {"amenity": "cafe", "name": "Stehcafe & Drugstore"}}, {"type": "node", "id": 1797369576, "lat": 50.9302488, "lon": 7.040808, "tags": {"addr:city": "K\u00f6ln", "addr:housenumber": "705", "addr:postcode": "51107", "addr:street": "Frankfurter Stra\u00dfe", "amenity": "cafe", "internet_access": "no", "name": "Schlechtriemen", "opening_hours": "Mo-Fr 06:30-18:00; Sa 06:30-13:00; Su 7:30-16:30", "smoking": "outside"}}, {"type": "node", "id": 1807746481, "lat": 50.9601025, "lon": 6.8327248, "tags": {"addr:city": "K\u00f6ln", "addr:housenumber": "35", "addr:postcode": "50859", "addr:street": "Zur Abtei", "amenity": "cafe", "diet:vegan": "yes", "diet:vegetarian": "yes", "name": "B\u00e4ckerei \u00b7 Konditorei \u00b7 Caf\u00e9", "opening_hours": "Mo-Fr 06:00-18:00; Sa 06:00-17:00; PH,Su 06:00-18:00", "operator": "Gebr. Voosen oHG", "shop": "bakery", "website": "https://www.baeckerei-voosen.de/", "wheelchair": "yes"}}, {"type": "node", "id": 1808374633, "lat": 50.8845978, "lon": 7.0581917, "tags": {"addr:city": "K\u00f6ln", "addr:country": "DE", "addr:housenumber": "12", "addr:postcode": "51143", "addr:street": "Josefstra\u00dfe", "amenity": "cafe", "cuisine": "ice_cream", "name": "La Perla", "old_name": "Eiscafe Dolce Vita", "outdoor_seating": "yes"}}, {"type": "node", "id": 1821113071, "lat": 50.9580904, "lon": 6.9439835, "tags": {"addr:city": "K\u00f6ln", "addr:housenumber": "93", "addr:postcode": "50733", "addr:street": "Hartwichstra\u00dfe", "amenity": "cafe", "cuisine": "ice_cream", "internet_access": "no", "name": "Caf\u00e9 Eiszeit", "opening_hours": "Mo,We-Su 12:00-22:00", "smoking": "outside", "website": "https://www.cafeeiszeit-koeln.de", "wifi": "no"}}, {"type": "node", "id": 1822911449, "lat": 51.0244174, "lon": 6.8828332, "tags": {"addr:city": "K\u00f6ln", "addr:country": "DE", "addr:postcode": "50765", "addr:street": "Dresenhofweg", "amenity": "cafe", "name": "Bausch"}}, {"type": "node", "id": 1854024566, "lat": 50.9338903, "lon": 6.9355726, "tags": {"addr:city": "K\u00f6ln", "addr:country": "DE", "addr:housenumber": "1", "addr:postcode": "50674", "addr:street": "J\u00fclicher Stra\u00dfe", "amenity": "cafe", "beer_garden": "no", "cuisine": "regional;breakfast", "internet_access": "wlan", "internet_access:fee": "no", "kitchen_hours": "12:00-22:00,22:00+", "loc_name": "Caf'\u00e9 der K\u00fcnstler", "name": "Central", "opening_hours": "07:00-22:00,22:00+", "outdoor_seating": "sidewalk", "phone": "+49-221-2071520", "tagesessen": "yes", "toilets:wheelchair": "no", "wheelchair": "limited", "wheelchair:description": "Caf\u00e9 mit ebenerdigem Eingang, WC im UG nicht Rollstuhlgerecht."}}, {"type": "node", "id": 1879147303, "lat": 50.9225815, "lon": 6.9625384, "tags": {"addr:city": "K\u00f6ln", "addr:housenumber": "13", "addr:postcode": "50678", "addr:street": "An der Bottm\u00fchle", "amenity": "cafe", "breakfast": "buffet", "name": "Caf\u00e9 Walter", "opening_hours": "Tu-Su 10:00-20:00", "phone": "+49 221 39757775", "toilets:wheelchair": "no", "wheelchair": "yes"}}, {"type": "node", "id": 1886097250, "lat": 50.9649666, "lon": 6.954304, "tags": {"addr:housenumber": "7", "addr:postcode": "50733", "addr:street": "Florastra\u00dfe", "amenity": "cafe", "cuisine": "coffee_shop", "internet_access": "no", "name": "Caf\u00e9 Klein Berlin", "opening_hours": "Mo-Fr 8:00-19:00;Sa 9:00-18:00", "smoking": "outside", "toilets:wheelchair": "yes", "website": "https://www.cafekleinberlin.de/", "wheelchair": "no"}}, {"type": "node", "id": 1895932165, "lat": 50.9503189, "lon": 6.9171487, "tags": {"amenity": "cafe", "name": "BubbleTeaM"}}, {"type": "node", "id": 1895932220, "lat": 50.9501202, "lon": 6.9170656, "tags": {"amenity": "cafe", "name": "Yogissimo", "wheelchair": "no"}}, {"type": "node", "id": 1900594267, "lat": 50.9369503, "lon": 6.9458107, "tags": {"addr:city": "K\u00f6ln", "addr:housenumber": "2-4", "addr:postcode": "50667", "addr:street": "Gertrudenstra\u00dfe", "amenity": "cafe", "diet:vegan": "no", "diet:vegetarian": "yes", "name": "Erdapfel", "opening_hours": "Mo-Sa 11:00-20:00", "outdoor_seating": "yes", "takeaway": "yes"}}, {"type": "node", "id": 1919890525, "lat": 50.921863, "lon": 6.9359406, "tags": {"amenity": "cafe"}}, {"type": "node", "id": 1975393267, "lat": 50.9373068, "lon": 6.9452582, "tags": {"amenity": "cafe", "name": "Espresso Colonia", "opening_hours": "Mo-Fr 09:00-19:00; Sa 10:00-19:00", "phone": "+49 221 27253196", "website": "https://espressocolonia.de/"}}, {"type": "node", "id": 1975412683, "lat": 50.9378192, "lon": 6.9452277, "tags": {"amenity": "cafe", "name": "Coffee Lounge"}}, {"type": "node", "id": 2042747185, "lat": 50.9277987, "lon": 6.9326921, "tags": {"addr:city": "K\u00f6ln", "addr:housenumber": "70", "addr:postcode": "50937", "addr:street": "Z\u00fclpicher Stra\u00dfe", "amenity": "cafe", "fax": "+49 221 944 053 410", "internet_access": "no", "level": "1", "name": "Kaffeebar Z\u00fclpicher Stra\u00dfe", "opening_hours": "Mo-Fr 09:00-17:15; Sa 11:30-15:30; Semesterferien Mo-Fr 09:00-15:00", "outdoor_seating": "yes", "payment:cash": "yes", "payment:electronic_purses": "yes", "phone": "+49 221 944 053 426", "website": "http://www.kstw.de/index.php?option=com_content&view=article&id=342&Itemid=173", "wheelchair": "yes"}}, {"type": "node", "id": 2049756182, "lat": 50.9178506, "lon": 6.9266351, "tags": {"amenity": "cafe", "name": "Caf\u00e9 Lamerdin", "opening_hours": "Mo,We,Fr,Su[-1] 14:30-17:00", "source": "survey", "survey:date": "2012-12-04", "wheelchair": "yes"}}, {"type": "node", "id": 2070368438, "lat": 50.9627754, "lon": 6.9674016, "tags": {"amenity": "cafe", "name": "Caf\u00e9 Kiosk", "source": "survey", "wheelchair": "limited"}}, {"type": "node", "id": 2079251169, "lat": 50.8904996, "lon": 7.0526609, "tags": {"amenity": "cafe", "name": "Caf\u00e9", "opening_hours": "Mo-Su 14:00-19:00", "toilets:wheelchair": "yes", "wheelchair": "yes"}}, {"type": "node", "id": 2085007699, "lat": 50.9395289, "lon": 6.9476482, "tags": {"amenity": "cafe", "name": "Caf\u00e9 Kogi", "website": "http://www.cafe-kogi.com"}}, {"type": "node", "id": 2104161354, "lat": 50.9596783, "lon": 7.0079158, "tags": {"addr:housenumber": "44", "addr:street": "Frankfurter Stra\u00dfe", "amenity": "cafe", "cuisine": "ice_cream;coffee_shop", "diet:vegetarian": "yes", "name": "Eiscaf\u00e9 Dolomiti", "opening_hours": "Mo-Su 10:00-22:00", "phone": "+49 221 611664", "wheelchair": "limited"}}, {"type": "node", "id": 2104817209, "lat": 50.9156262, "lon": 6.9924529, "tags": {"amenity": "cafe", "name": "META Caf\u00e9", "was:name": "U. Kessel", "was:shop": "dry_cleaning", "wheelchair": "yes"}}, {"type": "node", "id": 2111944785, "lat": 50.9604056, "lon": 6.9542854, "tags": {"addr:housenumber": "181", "addr:postcode": "50733", "addr:street": "Neusser Stra\u00dfe", "amenity": "cafe", "cuisine": "ice_cream", "name": "Eiscaf\u00e9 Sommariva", "wheelchair": "limited"}}, {"type": "node", "id": 2116073281, "lat": 50.9473023, "lon": 6.9230846, "tags": {"amenity": "cafe", "name": "K\u00f6lsch im Biss", "operator": "Scholzen", "website": "http://www.haus-scholzen.de/koelsch-im-biss.htm"}}, {"type": "node", "id": 2125707037, "lat": 50.9386157, "lon": 6.9623323, "tags": {"addr:postcode": "50667", "amenity": "cafe", "name": "Eiscaf\u00e9 FroYo"}}, {"type": "node", "id": 2159902971, "lat": 50.9318902, "lon": 6.9645967, "tags": {"addr:city": "K\u00f6ln", "addr:housenumber": "1a", "addr:postcode": "50678", "addr:street": "Am Schokoladenmuseum", "amenity": "cafe", "cuisine": "coffee_shop;ice_cream", "name": "Chocolade Grand Caf\u00e9", "smoking": "no", "toilets:wheelchair": "yes", "wheelchair": "yes", "wheelchair:description": "Zum Schokoladen-Museum.kommt man per Auffahr-Rampe ins Geb\u00e4ude!!\nAuf der rechten Seite ist die Information, wo es auch zu den Toiletten geht! - Rollstuhl-Toilette vorhanden!"}}, {"type": "node", "id": 2211158228, "lat": 50.9318248, "lon": 6.8467062, "tags": {"amenity": "cafe", "name": "Cafe Safari", "opening_hours": "Tu-Sa 10:00-18:00; Su 11:00-17:00", "website": "http://www.cafe-safari.de/", "wheelchair": "yes"}}, {"type": "node", "id": 2214790088, "lat": 50.9355514, "lon": 6.9593333, "tags": {"amenity": "cafe", "name": "Le Bistro bei Jola"}}, {"type": "node", "id": 2225404718, "lat": 50.9393085, "lon": 6.9618578, "tags": {"addr:housenumber": "1", "addr:postcode": "50667", "addr:street": "Am Bollwerk", "amenity": "cafe", "name": "Aloha Cafe", "outdoor_seating": "yes"}}, {"type": "node", "id": 2279123378, "lat": 50.9333833, "lon": 6.934895, "tags": {"addr:housenumber": "60", "addr:street": "Lindenstra\u00dfe", "amenity": "cafe", "name": "Caf\u00e9 il Piacere"}}, {"type": "node", "id": 2330814916, "lat": 50.8964353, "lon": 7.0965785, "tags": {"amenity": "cafe", "biergarten": "yes", "name": "Gut Leidenhausen", "opening_hours": "Apr-Oct We-Sa 12:00-18:00;Su 10:00-18:00; Nov-Mar We-Sa 12:00-16:00;Su 10:00-17:00", "website": "https://www.gut-leidenhausen.de/gastronomie-leidenhausen.php", "wheelchair": "limited"}}, {"type": "node", "id": 2340204748, "lat": 50.9209559, "lon": 6.9659277}, {"type": "node", "id": 2340204749, "lat": 50.9210042, "lon": 6.9657592}, {"type": "node", "id": 2340204750, "lat": 50.9210071, "lon": 6.9657477}, {"type": "node", "id": 2340204751, "lat": 50.9210405, "lon": 6.9659861}, {"type": "node", "id": 2340204752, "lat": 50.9210896, "lon": 6.9658057}, {"type": "node", "id": 2346702034, "lat": 50.9119924, "lon": 6.9239294, "tags": {"amenity": "cafe", "name": "B\u00e4ckerei Kraus", "wheelchair": "yes"}}, {"type": "node", "id": 2352475028, "lat": 50.9112353, "lon": 6.9231438, "tags": {"amenity": "cafe", "cuisine": "ice_cream", "name": "Eiscafe Sagittario", "wheelchair": "yes"}}, {"type": "node", "id": 2365730978, "lat": 50.940777, "lon": 6.9344941}, {"type": "node", "id": 2365730980, "lat": 50.9408222, "lon": 6.9346026}, {"type": "node", "id": 2365730981, "lat": 50.9408412, "lon": 6.934427}, {"type": "node", "id": 2365730983, "lat": 50.9408424, "lon": 6.9345895}, {"type": "node", "id": 2365730985, "lat": 50.940892, "lon": 6.9345457}, {"type": "node", "id": 2378929028, "lat": 50.9207309, "lon": 6.9637589, "tags": {"addr:city": "K\u00f6ln", "addr:country": "DE", "amenity": "cafe", "name": "Cafe Terrarium"}}, {"type": "node", "id": 2419064715, "lat": 50.9386252, "lon": 6.9405933, "tags": {"amenity": "cafe", "name": "Bastard", "wheelchair": "limited"}}, {"type": "node", "id": 2419064960, "lat": 50.9387694, "lon": 6.9398072, "tags": {"amenity": "cafe", "brand": "Gloria Jean's", "brand:wikidata": "Q2666365", "brand:wikipedia": "en:Gloria Jean's Coffees", "cuisine": "coffee_shop", "internet_access": "wlan", "name": "Gloria Jean's", "official_name": "Gloria Jean's Coffees", "takeaway": "yes"}}, {"type": "node", "id": 2419064963, "lat": 50.9383922, "lon": 6.9397397, "tags": {"amenity": "cafe", "name": "Caf\u00e9 Il Barista"}}, {"type": "node", "id": 2427896643, "lat": 50.9379512, "lon": 6.9415283, "tags": {"amenity": "cafe", "name": "Bar Bistro Gr\u00fcnder's"}}, {"type": "node", "id": 2449858704, "lat": 50.9356622, "lon": 6.9497384, "tags": {"amenity": "cafe", "name": "Bistro 48"}}, {"type": "node", "id": 2453044702, "lat": 50.9429285, "lon": 6.9569933, "tags": {"amenity": "cafe", "name": "Bistro Sion am Bahnhof", "wheelchair": "yes"}}, {"type": "node", "id": 2558337587, "lat": 50.9808723, "lon": 7.0720183, "tags": {"addr:city": "K\u00f6ln", "addr:housename": "dieZIRKUSfabrik", "addr:housenumber": "1007a", "addr:postcode": "51069", "addr:street": "Bergisch Gladbacher Stra\u00dfe", "amenity": "cafe", "name": "dieZIRKUSfabrik", "website": "https://diezirkusfabrik.com/"}}, {"type": "node", "id": 2561177960, "lat": 50.9218826, "lon": 6.9631834, "tags": {"addr:city": "K\u00f6ln", "addr:housenumber": "33", "addr:postcode": "50678", "addr:street": "Ubierring", "amenity": "cafe", "cuisine": "coffee_shop", "name": "Caffe\u00b4Bar", "website": "http://www.caffebar-koeln.de/", "wheelchair": "no"}}, {"type": "node", "id": 2564828038, "lat": 50.9519621, "lon": 6.9179958, "tags": {"addr:city": "K\u00f6ln", "addr:country": "DE", "addr:housenumber": "45", "addr:postcode": "50825", "addr:street": "Bartholom\u00e4us-Schink-Stra\u00dfe", "amenity": "cafe", "name": "Linie 7", "note": "Untergebracht in einem Doppeldeckerbus"}}, {"type": "node", "id": 2572188877, "lat": 50.9425528, "lon": 6.8341253, "tags": {"addr:city": "K\u00f6ln", "addr:housenumber": "2", "addr:postcode": "50858", "addr:street": "Goethestra\u00dfe", "amenity": "cafe", "contact:phone": "+49 2234 9887913", "cuisine": "ice_cream", "name": "(goethe) Brasserie & Eiscafe", "opening_hours": "Mo-Su 10:00-21:00", "wheelchair": "yes"}}, {"type": "node", "id": 2583505668, "lat": 50.9397317, "lon": 6.9400841, "tags": {"amenity": "cafe", "name": "Kaffee Pause", "takeaway": "yes"}}, {"type": "node", "id": 2647328857, "lat": 50.9216069, "lon": 6.9204418, "tags": {"addr:city": "K\u00f6ln", "addr:housenumber": "309", "addr:postcode": "50937", "addr:street": "Z\u00fclpicher Stra\u00dfe", "amenity": "cafe", "name": "Wo ist Tom?", "phone": "+49 221 16864477", "toilets:wheelchair": "yes", "website": "http://www.wo-ist-tom.de", "wheelchair": "yes", "wheelchair:description": "Eine Stufe, aber Rampe wird sofort vom \u00e4u\u00dferst freundlichen und hilfsbereitem Personal gebracht !"}}, {"type": "node", "id": 2661894921, "lat": 50.8970993, "lon": 7.0453536}, {"type": "node", "id": 2661894933, "lat": 50.8971371, "lon": 7.0454857}, {"type": "node", "id": 2661894969, "lat": 50.8972799, "lon": 7.0452236}, {"type": "node", "id": 2661894999, "lat": 50.8973177, "lon": 7.0453557}, {"type": "node", "id": 2669148393, "lat": 50.901191, "lon": 6.9439735, "tags": {"amenity": "cafe", "bar": "yes", "breakfast": "yes", "cake": "yes", "cuisine": "ice_cream", "drinks": "yes", "frozen_yogurt": "yes", "name": "van der Put", "opening_hours": "Fr-Th 10:00-21:30; We 10:00-21:00", "outdoor_seating": "yes", "website": "https://www.vanderput.de/"}}, {"type": "node", "id": 2669967396, "lat": 50.9472155, "lon": 6.9520797, "tags": {"addr:city": "K\u00f6ln", "addr:housenumber": "27", "addr:postcode": "50668", "addr:street": "Ritterstra\u00dfe", "amenity": "cafe", "breakfast": "yes", "contact:website": "http://www.cafeschnurrke.de/", "diet:vegan": "yes", "diet:vegetarian": "only", "name": "Caf\u00e9 Schnurrke", "opening_hours": "Tu-Su 11:00-19:00", "toilets:wheelchair": "no", "wheelchair": "yes"}}, {"type": "node", "id": 2670238884, "lat": 50.9478201, "lon": 6.9218514, "tags": {"amenity": "cafe", "name": "Simit Sarayi", "outdoor_seating": "yes"}}, {"type": "node", "id": 2672188770, "lat": 50.9287533, "lon": 6.9501936, "tags": {"addr:city": "K\u00f6ln", "addr:housenumber": "53a", "addr:postcode": "50676", "addr:street": "Martinsfeld", "amenity": "cafe", "name": "Kaffeeprinzen R\u00f6sterei und Koffeinbar", "phone": "+49 221 96678209", "shop": "coffee", "website": "https://www.kaffeeprinzen.de/", "wheelchair": "yes"}}, {"type": "node", "id": 2677091059, "lat": 50.9661104, "lon": 6.9147532, "tags": {"addr:city": "K\u00f6ln", "addr:housenumber": "2", "addr:postcode": "50825", "addr:street": "Vastersstra\u00dfe", "amenity": "cafe", "contact:website": "https://www.wohncafe-nebenan.de/", "name": "Wohncafe", "opening_hours": "Mo-Fr 11:30-14:00; Tu 11:30-18:00", "operator": "Guiseppino", "wheelchair": "yes"}}, {"type": "node", "id": 2686843743, "lat": 50.9097582, "lon": 6.9695862, "tags": {"amenity": "cafe", "name": "Mauel 1883", "opening_hours": "Mo-Fr 06:00-18:30; Sa 07:00-17:00; Su 08:00-17:00", "shop": "bakery"}}, {"type": "node", "id": 2712410776, "lat": 50.9410871, "lon": 7.0222543, "tags": {"amenity": "cafe", "cuisine": "ice_cream"}}, {"type": "node", "id": 2725805908, "lat": 50.8759172, "lon": 7.084774}, {"type": "node", "id": 2725805911, "lat": 50.8759204, "lon": 7.0848321}, {"type": "node", "id": 2725805926, "lat": 50.8759247, "lon": 7.0848242}, {"type": "node", "id": 2725805930, "lat": 50.8759268, "lon": 7.0848378}, {"type": "node", "id": 2725805938, "lat": 50.8759362, "lon": 7.0849087}, {"type": "node", "id": 2725805961, "lat": 50.8759637, "lon": 7.0849284}, {"type": "node", "id": 2725805997, "lat": 50.8760045, "lon": 7.084914}, {"type": "node", "id": 2768720649, "lat": 50.8578211, "lon": 7.0862267}, {"type": "node", "id": 2768720684, "lat": 50.8578556, "lon": 7.0863905}, {"type": "node", "id": 2768720736, "lat": 50.857906, "lon": 7.0861758}, {"type": "node", "id": 2768720740, "lat": 50.8579072, "lon": 7.0861814}, {"type": "node", "id": 2768720765, "lat": 50.8579318, "lon": 7.0861623}, {"type": "node", "id": 2768720767, "lat": 50.857933, "lon": 7.0861678}, {"type": "node", "id": 2768720815, "lat": 50.8580162, "lon": 7.0861241}, {"type": "node", "id": 2768721655, "lat": 50.8580394, "lon": 7.0862349}, {"type": "node", "id": 2768721666, "lat": 50.8580507, "lon": 7.08629}, {"type": "node", "id": 2818826455, "lat": 50.9462708, "lon": 6.9117884, "tags": {"amenity": "cafe", "name": "Kleins Backstube", "phone": "+49 221 22207030", "wheelchair": "yes"}}, {"type": "node", "id": 2838452957, "lat": 50.9379625, "lon": 6.9447336, "tags": {"addr:postcode": "50667", "amenity": "cafe", "name": "T\u00f6rtchen T\u00f6rtchen", "website": "https://www.toertchentoertchen.de/"}}, {"type": "node", "id": 2879496545, "lat": 50.9665171, "lon": 6.9532225, "tags": {"addr:city": "K\u00f6ln", "addr:housenumber": "325", "addr:postcode": "50733", "addr:street": "Neusser Stra\u00dfe", "amenity": "cafe", "cuisine": "S\u00fc\u00dfe_Spezialit\u00e4ten", "internet_access": "no", "name": "T\u00f6rtchenT\u00f6rtchen", "opening_hours": "Mo-Su 10:00-18:00", "smoking": "no", "wheelchair": "limited", "wheelchair:description": "Sehr kleiner Laden."}}, {"type": "node", "id": 2879904817, "lat": 50.9697176, "lon": 6.8850271, "tags": {"amenity": "cafe", "name": "Becker", "toilets:wheelchair": "no", "wheelchair": "yes"}}, {"type": "node", "id": 2899531874, "lat": 50.9179277, "lon": 6.9603703, "tags": {"addr:city": "K\u00f6ln", "addr:housenumber": "56", "addr:postcode": "50677", "addr:street": "Bonner Stra\u00dfe", "amenity": "cafe", "cuisine": "coffee_shop", "name": "Kaffeer\u00f6sterei Ernst", "opening_hours": "Mo-Fr 08:30-18:00; Sa 10:00-14:00, 15:00-18:00; Su 11:00-18:00", "website": "https://www.ernst-kaffee.de/?page_id=16", "wheelchair": "no"}}, {"type": "node", "id": 2899546402, "lat": 50.9202274, "lon": 6.960035, "tags": {"addr:city": "K\u00f6ln", "addr:housenumber": "13", "addr:postcode": "50677", "addr:street": "Bonner Stra\u00dfe", "amenity": "cafe", "cuisine": "coffee_shop", "name": "Einsp\u00e4nner", "opening_hours": "Mo-Fr 07:00-19:00; Sa 09:00-18:00; Su 10:00-18:00", "opening_hours:check_date": "2019-01-15", "wheelchair": "limited"}}, {"type": "node", "id": 2965203722, "lat": 50.9394882, "lon": 7.003513, "tags": {"addr:city": "K\u00f6ln", "addr:housenumber": "25", "addr:postcode": "51103", "addr:street": "Josephskirchstra\u00dfe", "amenity": "cafe", "contact:website": "https://www.nobiko.de/speisekarte", "cuisine": "japanese", "diet:vegan": "only", "internet_access": "wlan", "internet_access:fee": "no", "name": "Nobiko", "opening_hours": "Tu-Fr 16:00-22:00; Sa,Su 14:00-22:00", "outdoor_seating": "yes", "phone": "+49 221 16868666", "toilets:wheelchair": "no", "wheelchair": "limited"}}, {"type": "node", "id": 2971773869, "lat": 50.9620087, "lon": 6.9567434, "tags": {"amenity": "cafe", "name": "Istanbul Caf\u00e9"}}, {"type": "node", "id": 2981749640, "lat": 50.9618869, "lon": 6.9545379, "tags": {"amenity": "cafe", "name": "Bistro Sonne", "opening_hours": "Mo-Fr 09:00-19:00; Sa 09:00-17:00", "toilets:wheelchair": "no", "wheelchair": "yes"}}, {"type": "node", "id": 2981749661, "lat": 50.9602264, "lon": 6.9546758, "tags": {"amenity": "cafe", "name": "Melange Orange"}}, {"type": "node", "id": 2983078020, "lat": 50.9384063, "lon": 7.0073497}, {"type": "node", "id": 2983078028, "lat": 50.9384261, "lon": 7.0074761}, {"type": "node", "id": 2983080009, "lat": 50.9385364, "lon": 7.0075205}, {"type": "node", "id": 2983080597, "lat": 50.9385058, "lon": 7.0073352}, {"type": "node", "id": 2983081064, "lat": 50.938491, "lon": 7.0075379}, {"type": "node", "id": 2983081233, "lat": 50.9384391, "lon": 7.0075576}, {"type": "node", "id": 2983084669, "lat": 50.9417394, "lon": 7.0088714}, {"type": "node", "id": 2983084671, "lat": 50.9417396, "lon": 7.0088954}, {"type": "node", "id": 2983084672, "lat": 50.9417414, "lon": 7.0088948}, {"type": "node", "id": 2983084675, "lat": 50.9417473, "lon": 7.0089346}, {"type": "node", "id": 2983084677, "lat": 50.9417558, "lon": 7.0089619}, {"type": "node", "id": 2983084678, "lat": 50.9417608, "lon": 7.0090189}, {"type": "node", "id": 2983084679, "lat": 50.9417643, "lon": 7.0089827}, {"type": "node", "id": 2983084685, "lat": 50.9417725, "lon": 7.0090381}, {"type": "node", "id": 2983084686, "lat": 50.9417727, "lon": 7.0089995}, {"type": "node", "id": 2983084693, "lat": 50.9417846, "lon": 7.0090193}, {"type": "node", "id": 2983085156, "lat": 50.9418055, "lon": 7.0090453}, {"type": "node", "id": 2983085169, "lat": 50.9418316, "lon": 7.0090651}, {"type": "node", "id": 2983085183, "lat": 50.9418675, "lon": 7.0090774}, {"type": "node", "id": 2983085193, "lat": 50.9419041, "lon": 7.0090733}, {"type": "node", "id": 2983085201, "lat": 50.9419229, "lon": 7.0088407}, {"type": "node", "id": 2983085202, "lat": 50.9419243, "lon": 7.0088632}, {"type": "node", "id": 2983085208, "lat": 50.9419351, "lon": 7.0090026}, {"type": "node", "id": 2983085212, "lat": 50.9419386, "lon": 7.0090533}, {"type": "node", "id": 2983085218, "lat": 50.9419585, "lon": 7.0089985}, {"type": "node", "id": 2983085219, "lat": 50.9419614, "lon": 7.0088571}, {"type": "node", "id": 2984033232, "lat": 50.9377335, "lon": 6.8349837, "tags": {"amenity": "cafe", "brand": "Starbucks", "brand:wikidata": "Q37158", "brand:wikipedia": "en:Starbucks", "check_date:opening_hours": "2020-11-16", "cuisine": "coffee_shop", "level": "1", "name": "Starbucks", "official_name": "Starbucks Coffee", "opening_hours": "Mo-Sa 09:30-20:00; Su off", "takeaway": "yes", "toilets:wheelchair": "no", "website": "https://www.starbucks.de/", "wheelchair": "yes"}}, {"type": "node", "id": 3008391080, "lat": 51.0105887, "lon": 6.9056769}, {"type": "node", "id": 3008391091, "lat": 51.010649, "lon": 6.9057595}, {"type": "node", "id": 3008391105, "lat": 51.0107221, "lon": 6.9054299}, {"type": "node", "id": 3008391108, "lat": 51.0107822, "lon": 6.9055119}, {"type": "node", "id": 3010904026, "lat": 50.963846, "lon": 6.8995812}, {"type": "node", "id": 3010904035, "lat": 50.9638703, "lon": 6.8995624}, {"type": "node", "id": 3010904040, "lat": 50.9638864, "lon": 6.8997137}, {"type": "node", "id": 3010904044, "lat": 50.9639297, "lon": 6.8995174}, {"type": "node", "id": 3010904049, "lat": 50.9639682, "lon": 6.899643}, {"type": "node", "id": 3010904050, "lat": 50.9639702, "lon": 6.8996501}, {"type": "node", "id": 3014649621, "lat": 50.9406932, "lon": 6.9693296, "tags": {"amenity": "cafe"}}, {"type": "node", "id": 3049902755, "lat": 50.9632323, "lon": 6.952277, "tags": {"addr:city": "K\u00f6ln", "addr:housenumber": "1a", "addr:postcode": "50733", "addr:street": "Wilhelmplatz", "amenity": "cafe", "internet_access": "no", "name": "Kaffeekiosk", "opening_hours": "Mo-Sa 06:00-17:00", "smoking": "outside", "website": "https://www.facebook.com/pages/Kaffeekiosk/173701726136783?", "wheelchair": "yes", "wheelchair:description": "Kiosk, komplett drau\u00dfen. Beliebter Treffpunkt f\u00fcr junge M\u00fctter."}}, {"type": "node", "id": 3080321733, "lat": 50.9149622, "lon": 6.9290734, "tags": {"addr:city": "K\u00f6ln", "addr:housenumber": "157", "addr:postcode": "50939", "addr:street": "Gottesweg", "amenity": "cafe", "name": "Pradels", "phone": "+49 221 46009080", "toilets:wheelchair": "yes", "website": "http://www.pradels.de", "wheelchair": "yes", "wheelchair:description": "barrierefrei"}}, {"type": "node", "id": 3140017500, "lat": 50.9388339, "lon": 6.9507104, "tags": {"amenity": "cafe", "cuisine": "waffle;italian;ice_cream;cafe", "name": "Sunnysu", "outdoor_seating": "yes", "wheelchair": "yes"}}, {"type": "node", "id": 3172045899, "lat": 50.9374483, "lon": 6.9991804, "tags": {"addr:city": "K\u00f6ln", "addr:housenumber": "76", "addr:postcode": "51103", "addr:street": "Kalker Hauptstra\u00dfe", "amenity": "cafe", "cuisine": "pastry;coffee", "name": "Kleins Backstube", "smoking": "outside"}}, {"type": "node", "id": 3191751684, "lat": 50.9576747, "lon": 6.9246688, "tags": {"amenity": "cafe", "email": "info@cafe-tapku.de", "name": "Cafe Tapku", "opening_hours": "Tu-Th 09:00-20:00; Fr-Sa 09:00-22:00; Su 09:00-20:00", "opening_hours:covid19": "Mo-We off;Th-Su 12:00-17:00", "outdoor_seating": "yes", "phone": "+49 163 6805523", "website": "http://www.cafe-tapku.de", "wheelchair": "no"}}, {"type": "node", "id": 3200031039, "lat": 51.0652782, "lon": 6.8664158}, {"type": "node", "id": 3200031041, "lat": 51.0652844, "lon": 6.8665349}, {"type": "node", "id": 3200031044, "lat": 51.0652937, "lon": 6.866552}, {"type": "node", "id": 3200031268, "lat": 51.0653521, "lon": 6.8664025}, {"type": "node", "id": 3200031272, "lat": 51.0653549, "lon": 6.8664403}, {"type": "node", "id": 3200031275, "lat": 51.0653585, "lon": 6.8664912}, {"type": "node", "id": 3200031282, "lat": 51.065363, "lon": 6.8665556}, {"type": "node", "id": 3207885066, "lat": 50.9421994, "lon": 6.9582283, "tags": {"addr:city": "K\u00f6ln", "addr:housenumber": "11", "addr:postcode": "50667", "addr:street": "Trankgasse", "amenity": "cafe", "brand": "Coffee Fellows", "brand:wikidata": "Q23461429", "brand:wikipedia": "en:Coffee Fellows", "cuisine": "coffee_shop", "internet_access": "yes", "name": "Coffee Fellows", "opening_hours": "Mo-Su 06:00-22:00", "operator": "Coffee Fellows GmbH", "phone": "+49 221 13994956", "smoking": "no", "takeaway": "yes", "website": "http://www.coffee-fellows.de/", "wheelchair": "limited"}}, {"type": "node", "id": 3234676847, "lat": 50.968888, "lon": 7.0412601, "tags": {"addr:city": "K\u00f6ln", "addr:country": "DE", "addr:housenumber": "499", "addr:postcode": "51067", "addr:street": "Bergisch Gladbacher Stra\u00dfe", "amenity": "cafe", "entrance": "yes", "name": "Caf\u00e9 KlatschMohn", "opening_hours": "Mo 14:00-17:00;Th 14:00-17:00", "operator": "SeniorenNetzwerk Holweide e.V.", "website": "http://www.seniorennetzwerk-holweide.de/", "wheelchair": "yes", "wheelchair:description": "Rampe steht im Cafe, bitte vorher anrufen"}}, {"type": "node", "id": 3272820103, "lat": 50.9427251, "lon": 6.9581226, "tags": {"access": "designated", "amenity": "cafe", "internet_access": "yes", "level": "1", "name": "DB Lounge", "opening_hours": "Mo-Fr 06:30-21:30; Sa,Su 07:00-21:00", "operator": "Deutsche Bahn", "source": "survey", "wheelchair": "yes"}}, {"type": "node", "id": 3295193608, "lat": 51.018573, "lon": 6.9018464, "tags": {"amenity": "cafe", "cuisine": "turkish", "name": "Bar\u0131\u015f Bistro Caf\u00e9"}}, {"type": "node", "id": 3296453922, "lat": 50.910817, "lon": 6.9410796, "tags": {"amenity": "cafe", "name": "Tee Stube"}}, {"type": "node", "id": 3297410119, "lat": 51.0003728, "lon": 6.8792546, "tags": {"amenity": "cafe", "name": "Vosen B\u00e4ckerei", "name:de": "Voosen B\u00e4ckerei"}}, {"type": "node", "id": 3305876579, "lat": 50.9242156, "lon": 6.9270805, "tags": {"addr:city": "K\u00f6ln", "addr:housenumber": "42", "addr:postcode": "50937", "addr:street": "Weyertal", "amenity": "cafe", "name": "Petit Noir", "opening_hours": "Mo-Fr 08:00-19:00; Sa, Su 10:00-19:00", "outdoor_seating": "yes", "phone": "+49 221 2825737", "smoking": "outside", "website": "http://petitnoir.de"}}, {"type": "node", "id": 3339433461, "lat": 50.9614049, "lon": 6.949751, "tags": {"addr:city": "K\u00f6ln", "addr:housenumber": "66", "addr:postcode": "50733", "addr:street": "Siebachstra\u00dfe", "amenity": "cafe", "cuisine": "international", "name": "Caf\u00e9 \u00d6m", "smoking": "outside", "wheelchair": "no"}}, {"type": "node", "id": 3344462774, "lat": 50.9516119, "lon": 6.9226779, "tags": {"addr:city": "K\u00f6ln", "addr:housenumber": "62", "addr:postcode": "50823", "addr:street": "Glasstra\u00dfe", "amenity": "cafe", "diet:vegan": "yes", "diet:vegetarian": "yes", "name": "Kaffeebud Ehrenfeld", "opening_hours": "Mo,Tu,Th, Fr 08:00-19:00; Sa, Su 10:00-19:00", "phone": "+49 174 2523233", "smoking": "no", "source": "http://kaffeebud.net/", "website": "http://kaffeebud.net/"}}, {"type": "node", "id": 3398746034, "lat": 50.9164392, "lon": 6.9905091, "tags": {"amenity": "cafe", "cuisine": "ice_cream", "name": "Rialto"}}, {"type": "node", "id": 3426389407, "lat": 50.9538947, "lon": 6.9598269, "tags": {"amenity": "cafe", "name": "Cafe Elefant", "toilets:wheelchair": "no", "wheelchair": "no"}},